,stop_id,trip_sequence,trip_id,route_id,stop_name,route_name,minute_delay,oid_max,actual_arrival_time_max,actual_arrival_time_min,planned_arrival_seconds_since_midnight_max,planned_arrival_seconds_since_midnight_min
0,795,1,4828789,14456,SCHOOL BOARD METROMOVER STATION,MMO,30.0,1880641,1969-12-31 19:00:00.000000,1969-12-31 19:00:00.000000,68220.0,25320.0
1,796,2,4828789,14456,ADRIENNE ARSHT CENTER METROMOVER STATION,MMO,30.0,1880641,2023-12-13 09:02:31.000000,1969-12-31 19:00:00.000000,68280.0,25380.0
2,796,11,4829418,14456,ADRIENNE ARSHT CENTER METROMOVER STATION,MMO,30.0,1880688,2023-12-13 08:58:39.000000,1969-12-31 19:00:00.000000,68340.0,25440.0
3,797,3,4828789,14456,MUSEUM PARK METROMOVER STATION,MMO,30.0,1880641,2023-12-13 09:03:51.000000,1969-12-31 19:00:00.000000,68340.0,25440.0
4,798,4,4828788,14456,ELEVENTH STREET METROMOVER STATION,MMO,30.0,1880641,2023-12-13 08:57:41.000000,1969-12-31 19:00:00.000000,68400.0,25200.0
5,799,5,4828788,14456,PARK WEST METROMOVER STATION,MMO,30.0,1880641,2023-12-13 08:58:21.000000,1969-12-31 19:00:00.000000,68160.0,25260.0
6,800,6,4828792,14456,FREEDOM TOWER METROMOVER STATION,MMO,30.0,1880641,2023-12-13 08:58:45.000000,1969-12-31 19:00:00.000000,68220.0,25320.0
7,801,1,4828999,14456,FINANCIAL DISTRICT METROMOVER STATION,MMO,30.0,1880638,1969-12-31 19:00:00.000000,1969-12-31 19:00:00.000000,68400.0,25200.0
8,802,2,4828999,14456,BRICKELL METROMOVER STATION,MMO,30.0,1880638,2023-12-13 08:57:43.000000,1969-12-31 19:00:00.000000,68160.0,25260.0
9,803,3,4828999,14456,TENTH STREET PROMANADE METROMOVER STATION,MMO,30.0,1880638,2023-12-13 08:58:24.000000,1969-12-31 19:00:00.000000,68220.0,25320.0
10,804,4,4828999,14456,BRICKELL CITY CENTRE METROMOVER STATION,MMO,30.0,1880638,2023-12-13 08:58:51.000000,1969-12-31 19:00:00.000000,68280.0,25380.0
11,805,5,4828999,14456,FIFTH STREET METROMOVER STATION,MMO,30.0,1880638,2023-12-13 08:59:10.000000,1969-12-31 19:00:00.000000,68340.0,25440.0
12,806,6,4828998,14456,RIVERWALK METROMOVER STATION,MMO,30.0,1880638,2023-12-13 08:59:46.000000,1969-12-31 19:00:00.000000,68400.0,25200.0
13,807,7,4828998,14456,KNIGHT CENTER METROMOVER STATION,MMO,30.0,1880483,2023-12-13 08:56:18.000000,1969-12-31 19:00:00.000000,68160.0,25260.0
14,808,8,4829000,14456,BAYFRONT PARK METROMOVER STATION,MMO,30.0,1880483,2023-12-13 08:57:51.000000,1969-12-31 19:00:00.000000,68220.0,25320.0
15,809,9,4829007,14456,FIRST STREET METROMOVER STATION,MMO,30.0,1880483,2023-12-13 08:58:34.000000,1969-12-31 19:00:00.000000,68280.0,25380.0
16,810,10,4829007,14456,COLLEGE BAYSIDE METROMOVER STATION,MMO,30.0,1880483,2023-12-13 08:59:04.000000,1969-12-31 19:00:00.000000,68340.0,25440.0
17,811,7,4828788,14456,COLLEGE NORTH METROMOVER STATION,MMO,30.0,1880641,2023-12-13 08:59:52.000000,1969-12-31 19:00:00.000000,68280.0,25380.0
18,811,11,4828997,14456,COLLEGE NORTH METROMOVER STATION,MMO,7.865333333333333,1880483,2023-12-13 09:00:19.000000,2023-12-12 07:03:08.000000,68400.0,25200.0
19,812,8,4828792,14456,WILKIE D FERGUSON METROMOVER STATION,MMO,30.0,1880641,2023-12-13 09:00:11.000000,1969-12-31 19:00:00.000000,68340.0,25440.0
20,812,12,4828997,14456,WILKIE D FERGUSON METROMOVER STATION,MMO,17.17297297297297,1880483,2023-12-13 08:56:36.000000,1969-12-31 19:00:00.000000,68160.0,25260.0
21,813,1,4829209,14456,GOVERNMENT CENTER METROMOVER STATION,MMO,30.0,1880688,1969-12-31 19:00:00.000000,1969-12-31 19:00:00.000000,68400.0,25200.0
22,813,4,4832765,14457,GOVERNMENT CENTER METROMOVER STATION,MMI,0.0,1880672,2023-12-13 08:57:32.000000,2023-12-12 06:57:53.000000,68400.0,25200.0
23,813,9,4828787,14456,GOVERNMENT CENTER METROMOVER STATION,MMO,4.897333333333333,1880641,2023-12-13 09:00:54.000000,2023-12-12 07:07:03.000000,68400.0,25200.0
24,813,13,4828997,14456,GOVERNMENT CENTER METROMOVER STATION,MMO,7.045833333333333,1880483,2023-12-13 08:56:51.000000,2023-12-12 07:04:11.000000,68220.0,25320.0
25,815,2,4829212,14456,THIRD STREET METROMOVER STATION,MMO,30.0,1880688,2023-12-13 09:00:56.000000,1969-12-31 19:00:00.000000,68400.0,25200.0
26,816,3,4829210,14456,RIVERWALK METROMOVER STATION,MMO,30.0,1880637,2023-12-13 09:01:32.000000,1969-12-31 19:00:00.000000,68280.0,25380.0
27,817,4,4829210,14456,FIFTH STREET METROMOVER STATION,MMO,30.0,1880637,2023-12-13 09:01:51.000000,1969-12-31 19:00:00.000000,68340.0,25440.0
28,818,5,4829208,14456,BRICKELL CITY CENTRE METROMOVER STATION,MMO,30.0,1880637,2023-12-13 09:02:16.000000,1969-12-31 19:00:00.000000,68400.0,25200.0
29,819,6,4829208,14456,TENTH STREET PROMANADE METROMOVER STATION,MMO,30.0,1880637,2023-12-13 08:57:17.000000,1969-12-31 19:00:00.000000,68160.0,25260.0
30,820,7,4829208,14456,BRICKELL METROMOVER STATION,MMO,30.0,1880637,2023-12-13 08:58:10.000000,1969-12-31 19:00:00.000000,68220.0,25320.0
31,821,8,4829208,14456,FINANCIAL DISTRICT METROMOVER STATION,MMO,6.966666666666667,1880637,2023-12-13 08:58:57.000000,2023-12-12 07:09:24.000000,68280.0,25380.0
32,822,3,4829418,14456,KNIGHT CENTER METROMOVER STATION,MMO,6.970833333333333,1880688,2023-12-13 08:55:59.000000,2023-12-12 07:07:17.000000,68160.0,25260.0
33,823,4,4829434,14456,BAYFRONT PARK METROMOVER STATION,MMO,24.621333333333332,1880688,2023-12-13 08:57:19.000000,1969-12-31 19:00:00.000000,68220.0,25320.0
34,824,5,4829419,14456,FIRST STREET METROMOVER STATION,MMO,30.0,1880688,2023-12-13 08:58:24.000000,1969-12-31 19:00:00.000000,68280.0,25380.0
35,825,6,4829419,14456,COLLEGE / BAYSIDE METROMOVER STATION,MMO,30.0,1880688,2023-12-13 08:58:44.000000,1969-12-31 19:00:00.000000,68340.0,25440.0
36,826,7,4829418,14456,FREEDOM TOWER METROMOVER STATION,MMO,30.0,1880688,2023-12-13 08:59:50.000000,1969-12-31 19:00:00.000000,68400.0,25200.0
37,827,8,4829417,14456,PARK WEST METROMOVER STATION,MMO,30.0,1880688,2023-12-13 08:55:44.000000,1969-12-31 19:00:00.000000,68160.0,25260.0
38,828,9,4829419,14456,ELEVENTH STREET METROMOVER STATION,MMO,30.0,1880688,2023-12-13 08:56:22.000000,1969-12-31 19:00:00.000000,68220.0,25320.0
39,829,10,4829418,14456,MUSEUM PARK METROMOVER STATION,MMO,30.0,1880688,2023-12-13 08:57:10.000000,1969-12-31 19:00:00.000000,68280.0,25380.0
40,831,12,4829416,14456,SCHOOL BOARD METROMOVER STATION,MMO,4.053333333333334,1880688,2023-12-13 08:59:34.000000,2023-12-12 07:05:53.000000,68400.0,25200.0
41,832,1,4832767,14457,BISCAYNE BD@E FLAGLER ST,MMI,30.0,1880672,1969-12-31 19:00:00.000000,1969-12-31 19:00:00.000000,68400.0,25200.0
42,833,2,4833053,14457,KNIGHT CENTER METROMOVER STATION,MMI,0.0,1880672,2023-12-13 08:58:51.000000,1969-12-31 19:00:00.000000,68340.0,25290.0
43,834,3,4833048,14457,MIAMI AVENUE METROMOVER STATION,MMI,0.0,1880672,2023-12-13 08:56:29.000000,1969-12-31 19:00:00.000000,68280.0,25230.0
44,837,2,4832307,14457,WILKIE D FERGUSON METROMOVER STATION,MMI,0.0,1880674,2023-12-13 08:57:30.000000,2023-12-12 06:59:29.000000,68310.0,25260.0
45,838,3,4832308,14457,COLLEGE NORTH METROMOVER STATION,MMI,4.076551724137931,1880674,2023-12-13 08:58:11.000000,1969-12-31 19:00:00.000000,68370.0,25320.0
46,839,4,4832308,14457,COLLEGE BAYSIDE METROMOVER STATION,MMI,16.167532467532467,1880674,2023-12-13 08:57:28.000000,1969-12-31 19:00:00.000000,68280.0,25230.0
47,840,5,4832308,14457,FIRST STREET METROMOVER STATION,MMI,17.096129032258066,1880674,2023-12-13 08:58:38.000000,1969-12-31 19:00:00.000000,68400.0,25200.0
48,841,6,4832305,14457,BAYFRONT PARK METROMOVER STATION,MMI,0.0,1880674,2023-12-13 08:56:49.000000,2023-12-12 06:57:53.000000,68310.0,25260.0
