{"directed": true, "multigraph": false, "graph": {}, "nodes": [{"stop_id": "6000", "stop_code": 6000, "stop_name": "Santa Monica / Larrabee", "stop_desc": 0.0, "stop_lat": 34.08555, "stop_lon": -118.382775, "stop_url": 0.0, "location_type": 0.0, "parent_station": 0.0, "tpis_name": 0.0, "id": "6000"}, {"stop_id": "2192", "stop_code": 2192, "stop_name": "San Vicente / Melrose", "stop_desc": 0.0, "stop_lat": 34.082049, "stop_lon": -118.383647, "stop_url": 0.0, "location_type": 0.0, "parent_station": 0.0, "tpis_name": 0.0, "id": "2192"}, {"stop_id": "3206", "stop_code": 3206, "stop_name": "Melrose / Huntley", "stop_desc": 0.0, "stop_lat": 34.081861, "stop_lon": -118.380525, "stop_url": 0.0, "location_type": 0.0, "parent_station": 0.0, "tpis_name": 0.0, "id": "3206"}, {"stop_id": "3216", "stop_code": 3216, "stop_name": "Melrose / La Cienega", "stop_desc": 0.0, "stop_lat": 34.081832, "stop_lon": -118.376678, "stop_url": 0.0, "location_type": 0.0, "parent_station": 0.0, "tpis_name": 0.0, "id": "3216"}, {"stop_id": "3224", "stop_code": 3224, "stop_name": "Melrose / Orlando", "stop_desc": 0.0, "stop_lat": 34.083279, "stop_lon": -118.373421, "stop_url": 0.0, "location_type": 0.0, "parent_station": 0.0, "tpis_name": 0.0, "id": "3224"}, {"stop_id": "3211", "stop_code": 3211, "stop_name": "Melrose / Harper", "stop_desc": 0.0, "stop_lat": 34.083583, "stop_lon": -118.369225, "stop_url": 0.0, "location_type": 0.0, "parent_station": 0.0, "tpis_name": 0.0, "id": "3211"}, {"stop_id": "3209", "stop_code": 3209, "stop_name": "Melrose / Crescent Heights", "stop_desc": 0.0, "stop_lat": 34.083634, "stop_lon": -118.366042, "stop_url": 0.0, "location_type": 0.0, "parent_station": 0.0, "tpis_name": 0.0, "id": "3209"}, {"stop_id": "17013", "stop_code": 17013, "stop_name": "Melrose / Fairfax", "stop_desc": 0.0, "stop_lat": 34.083698, "stop_lon": -118.361111, "stop_url": 0.0, "location_type": 0.0, "parent_station": 0.0, "tpis_name": 0.0, "id": "17013"}, {"stop_id": "3222", "stop_code": 3222, "stop_name": "Melrose / Ogden", "stop_desc": 0.0, "stop_lat": 34.083667, "stop_lon": -118.359622, "stop_url": 0.0, "location_type": 0.0, "parent_station": 0.0, "tpis_name": 0.0, "id": "3222"}, {"stop_id": "3226", "stop_code": 3226, "stop_name": "Melrose / Spaulding", "stop_desc": 0.0, "stop_lat": 34.083618, "stop_lon": -118.357531, "stop_url": 0.0, "location_type": 0.0, "parent_station": 0.0, "tpis_name": 0.0, "id": "3226"}, {"stop_id": "3210", "stop_code": 3210, "stop_name": "Melrose / Gardner", "stop_desc": 0.0, "stop_lat": 34.083526, "stop_lon": -118.353389, "stop_url": 0.0, "location_type": 0.0, "parent_station": 0.0, "tpis_name": 0.0, "id": "3210"}, {"stop_id": "3220", "stop_code": 3220, "stop_name": "Melrose / Martel", "stop_desc": 0.0, "stop_lat": 34.08348, "stop_lon": -118.351275, "stop_url": 0.0, "location_type": 0.0, "parent_station": 0.0, "tpis_name": 0.0, "id": "3220"}, {"stop_id": "3225", "stop_code": 3225, "stop_name": "Melrose / Poinsettia", "stop_desc": 0.0, "stop_lat": 34.083427, "stop_lon": -118.348812, "stop_url": 0.0, "location_type": 0.0, "parent_station": 0.0, "tpis_name": 0.0, "id": "3225"}, {"stop_id": "3215", "stop_code": 3215, "stop_name": "Melrose / La Brea", "stop_desc": 0.0, "stop_lat": 34.083327, "stop_lon": -118.344214, "stop_url": 0.0, "location_type": 0.0, "parent_station": 0.0, "tpis_name": 0.0, "id": "3215"}, {"stop_id": "3213", "stop_code": 3213, "stop_name": "Melrose / Highland", "stop_desc": 0.0, "stop_lat": 34.083344, "stop_lon": -118.338243, "stop_url": 0.0, "location_type": 0.0, "parent_station": 0.0, "tpis_name": 0.0, "id": "3213"}, {"stop_id": "3214", "stop_code": 3214, "stop_name": "Melrose / June", "stop_desc": 0.0, "stop_lat": 34.08336, "stop_lon": -118.334333, "stop_url": 0.0, "location_type": 0.0, "parent_station": 0.0, "tpis_name": 0.0, "id": "3214"}, {"stop_id": "3233", "stop_code": 3233, "stop_name": "Melrose / Wilcox", "stop_desc": 0.0, "stop_lat": 34.083347, "stop_lon": -118.331133, "stop_url": 0.0, "location_type": 0.0, "parent_station": 0.0, "tpis_name": 0.0, "id": "3233"}, {"stop_id": "3202", "stop_code": 3202, "stop_name": "Melrose / Arden", "stop_desc": 0.0, "stop_lat": 34.083366, "stop_lon": -118.326189, "stop_url": 0.0, "location_type": 0.0, "parent_station": 0.0, "tpis_name": 0.0, "id": "3202"}, {"stop_id": "3217", "stop_code": 3217, "stop_name": "Melrose / Larchmont", "stop_desc": 0.0, "stop_lat": 34.08337, "stop_lon": -118.323828, "stop_url": 0.0, "location_type": 0.0, "parent_station": 0.0, "tpis_name": 0.0, "id": "3217"}, {"stop_id": "3232", "stop_code": 3232, "stop_name": "Melrose / Windsor", "stop_desc": 0.0, "stop_lat": 34.083381, "stop_lon": -118.319709, "stop_url": 0.0, "location_type": 0.0, "parent_station": 0.0, "tpis_name": 0.0, "id": "3232"}, {"stop_id": "3227", "stop_code": 3227, "stop_name": "Melrose / Van Ness", "stop_desc": 0.0, "stop_lat": 34.083385, "stop_lon": -118.315888, "stop_url": 0.0, "location_type": 0.0, "parent_station": 0.0, "tpis_name": 0.0, "id": "3227"}, {"stop_id": "3231", "stop_code": 3231, "stop_name": "Melrose / Wilton", "stop_desc": 0.0, "stop_lat": 34.083391, "stop_lon": -118.313676, "stop_url": 0.0, "location_type": 0.0, "parent_station": 0.0, "tpis_name": 0.0, "id": "3231"}, {"stop_id": "4716", "stop_code": 4716, "stop_name": "Melrose / Western", "stop_desc": 0.0, "stop_lat": 34.083397, "stop_lon": -118.308802, "stop_url": 0.0, "location_type": 0.0, "parent_station": 0.0, "tpis_name": 0.0, "id": "4716"}, {"stop_id": "3212", "stop_code": 3212, "stop_name": "Melrose / Harvard", "stop_desc": 0.0, "stop_lat": 34.083422, "stop_lon": -118.304756, "stop_url": 0.0, "location_type": 0.0, "parent_station": 0.0, "tpis_name": 0.0, "id": "3212"}, {"stop_id": "3221", "stop_code": 3221, "stop_name": "Melrose / Normandie", "stop_desc": 0.0, "stop_lat": 34.083441, "stop_lon": -118.300611, "stop_url": 0.0, "location_type": 0.0, "parent_station": 0.0, "tpis_name": 0.0, "id": "3221"}, {"stop_id": "11689", "stop_code": 11689, "stop_name": "Melrose / Alexandria", "stop_desc": 0.0, "stop_lat": 34.083446, "stop_lon": -118.29755, "stop_url": 0.0, "location_type": 0.0, "parent_station": 0.0, "tpis_name": 0.0, "id": "11689"}, {"stop_id": "3205", "stop_code": 3205, "stop_name": "Melrose / Heliotrope", "stop_desc": 0.0, "stop_lat": 34.083462, "stop_lon": -118.295466, "stop_url": 0.0, "location_type": 0.0, "parent_station": 0.0, "tpis_name": 0.0, "id": "3205"}, {"stop_id": "3228", "stop_code": 3228, "stop_name": "Melrose / Vermont", "stop_desc": 0.0, "stop_lat": 34.083476, "stop_lon": -118.291873, "stop_url": 0.0, "location_type": 0.0, "parent_station": 0.0, "tpis_name": 0.0, "id": "3228"}, {"stop_id": "3229", "stop_code": 3229, "stop_name": "Melrose / Virgil", "stop_desc": 0.0, "stop_lat": 34.083474, "stop_lon": -118.286992, "stop_url": 0.0, "location_type": 0.0, "parent_station": 0.0, "tpis_name": 0.0, "id": "3229"}, {"stop_id": "24251", "stop_code": 24251, "stop_name": "Clinton / Virgil", "stop_desc": 0.0, "stop_lat": 34.081705, "stop_lon": -118.28648, "stop_url": 0.0, "location_type": 0.0, "parent_station": 0.0, "tpis_name": 0.0, "id": "24251"}, {"stop_id": "730", "stop_code": 730, "stop_name": "Clinton / Hoover", "stop_desc": 0.0, "stop_lat": 34.081702, "stop_lon": -118.284611, "stop_url": 0.0, "location_type": 0.0, "parent_station": 0.0, "tpis_name": 0.0, "id": "730"}, {"stop_id": "3632", "stop_code": 3632, "stop_name": "Hoover / Bellevue", "stop_desc": 0.0, "stop_lat": 34.080836, "stop_lon": -118.284552, "stop_url": 0.0, "location_type": 0.0, "parent_station": 0.0, "tpis_name": 0.0, "id": "3632"}, {"stop_id": "2523", "stop_code": 2523, "stop_name": "Hoover / Plata", "stop_desc": 0.0, "stop_lat": 34.078869, "stop_lon": -118.284539, "stop_url": 0.0, "location_type": 0.0, "parent_station": 0.0, "tpis_name": 0.0, "id": "2523"}, {"stop_id": "24249", "stop_code": 24249, "stop_name": "Temple / Hoover", "stop_desc": 0.0, "stop_lat": 34.076323, "stop_lon": -118.283787, "stop_url": 0.0, "location_type": 0.0, "parent_station": 0.0, "tpis_name": 0.0, "id": "24249"}, {"stop_id": "8106", "stop_code": 8106, "stop_name": "Temple / Robinson", "stop_desc": 0.0, "stop_lat": 34.075443, "stop_lon": -118.281852, "stop_url": 0.0, "location_type": 0.0, "parent_station": 0.0, "tpis_name": 0.0, "id": "8106"}, {"stop_id": "8103", "stop_code": 8103, "stop_name": "Temple / Vendome", "stop_desc": 0.0, "stop_lat": 34.074825, "stop_lon": -118.28046, "stop_url": 0.0, "location_type": 0.0, "parent_station": 0.0, "tpis_name": 0.0, "id": "8103"}, {"stop_id": "8099", "stop_code": 8099, "stop_name": "Temple / Occidental", "stop_desc": 0.0, "stop_lat": 34.073644, "stop_lon": -118.277738, "stop_url": 0.0, "location_type": 0.0, "parent_station": 0.0, "tpis_name": 0.0, "id": "8099"}, {"stop_id": "8100", "stop_code": 8100, "stop_name": "Temple / Rampart", "stop_desc": 0.0, "stop_lat": 34.072332, "stop_lon": -118.27467, "stop_url": 0.0, "location_type": 0.0, "parent_station": 0.0, "tpis_name": 0.0, "id": "8100"}, {"stop_id": "8092", "stop_code": 8092, "stop_name": "Temple / Carondelet", "stop_desc": 0.0, "stop_lat": 34.071825, "stop_lon": -118.273122, "stop_url": 0.0, "location_type": 0.0, "parent_station": 0.0, "tpis_name": 0.0, "id": "8092"}, {"stop_id": "3947", "stop_code": 3947, "stop_name": "Temple / Rosemont", "stop_desc": 0.0, "stop_lat": 34.071082, "stop_lon": -118.270888, "stop_url": 0.0, "location_type": 0.0, "parent_station": 0.0, "tpis_name": 0.0, "id": "3947"}, {"stop_id": "4719", "stop_code": 4719, "stop_name": "Temple / Alvarado", "stop_desc": 0.0, "stop_lat": 34.070101, "stop_lon": -118.267932, "stop_url": 0.0, "location_type": 0.0, "parent_station": 0.0, "tpis_name": 0.0, "id": "4719"}, {"stop_id": "8089", "stop_code": 8089, "stop_name": "Temple / Bonnie Brae", "stop_desc": 0.0, "stop_lat": 34.069371, "stop_lon": -118.265711, "stop_url": 0.0, "location_type": 0.0, "parent_station": 0.0, "tpis_name": 0.0, "id": "8089"}, {"stop_id": "8102", "stop_code": 8102, "stop_name": "Temple / Union", "stop_desc": 0.0, "stop_lat": 34.068626, "stop_lon": -118.263441, "stop_url": 0.0, "location_type": 0.0, "parent_station": 0.0, "tpis_name": 0.0, "id": "8102"}, {"stop_id": "8087", "stop_code": 8087, "stop_name": "Temple / Glendale", "stop_desc": 0.0, "stop_lat": 34.067962, "stop_lon": -118.260576, "stop_url": 0.0, "location_type": 0.0, "parent_station": 0.0, "tpis_name": 0.0, "id": "8087"}, {"stop_id": "8085", "stop_code": 8085, "stop_name": "Temple / Douglas", "stop_desc": 0.0, "stop_lat": 34.067181, "stop_lon": -118.256786, "stop_url": 0.0, "location_type": 0.0, "parent_station": 0.0, "tpis_name": 0.0, "id": "8085"}, {"stop_id": "8086", "stop_code": 8086, "stop_name": "Temple / Edgeware", "stop_desc": 0.0, "stop_lat": 34.066403, "stop_lon": -118.254502, "stop_url": 0.0, "location_type": 0.0, "parent_station": 0.0, "tpis_name": 0.0, "id": "8086"}, {"stop_id": "8090", "stop_code": 8090, "stop_name": "Temple / Boylston", "stop_desc": 0.0, "stop_lat": 34.064511, "stop_lon": -118.252604, "stop_url": 0.0, "location_type": 0.0, "parent_station": 0.0, "tpis_name": 0.0, "id": "8090"}, {"stop_id": "16374", "stop_code": 16374, "stop_name": "Temple / Beaudry", "stop_desc": 0.0, "stop_lat": 34.062889, "stop_lon": -118.251276, "stop_url": 0.0, "location_type": 0.0, "parent_station": 0.0, "tpis_name": 0.0, "id": "16374"}, {"stop_id": "8094", "stop_code": 8094, "stop_name": "Temple / Figueroa", "stop_desc": 0.0, "stop_lat": 34.059965, "stop_lon": -118.248827, "stop_url": 0.0, "location_type": 0.0, "parent_station": 0.0, "tpis_name": 0.0, "id": "8094"}, {"stop_id": "3587", "stop_code": 3587, "stop_name": "Temple / Grand", "stop_desc": 0.0, "stop_lat": 34.057114, "stop_lon": -118.245438, "stop_url": 0.0, "location_type": 0.0, "parent_station": 0.0, "tpis_name": 0.0, "id": "3587"}, {"stop_id": "16381", "stop_code": 16381, "stop_name": "Hill / Temple", "stop_desc": 0.0, "stop_lat": 34.056366, "stop_lon": -118.244805, "stop_url": 0.0, "location_type": 0.0, "parent_station": 0.0, "tpis_name": 0.0, "id": "16381"}, {"stop_id": "5133", "stop_code": 5133, "stop_name": "Hill / 1st", "stop_desc": 0.0, "stop_lat": 34.053811, "stop_lon": -118.247234, "stop_url": 0.0, "location_type": 0.0, "parent_station": 0.0, "tpis_name": 0.0, "id": "5133"}, {"stop_id": "5135", "stop_code": 5135, "stop_name": "Hill / 3rd", "stop_desc": 0.0, "stop_lat": 34.051495, "stop_lon": -118.249416, "stop_url": 0.0, "location_type": 0.0, "parent_station": 0.0, "tpis_name": 0.0, "id": "5135"}, {"stop_id": "13596", "stop_code": 13596, "stop_name": "Hill / 4th", "stop_desc": 0.0, "stop_lat": 34.050438, "stop_lon": -118.250406, "stop_url": 0.0, "location_type": 0.0, "parent_station": 0.0, "tpis_name": 0.0, "id": "13596"}, {"stop_id": "13597", "stop_code": 13597, "stop_name": "Hill / 5th", "stop_desc": 0.0, "stop_lat": 34.048613, "stop_lon": -118.252055, "stop_url": 0.0, "location_type": 0.0, "parent_station": 0.0, "tpis_name": 0.0, "id": "13597"}, {"stop_id": "13598", "stop_code": 13598, "stop_name": "Hill / 6th", "stop_desc": 0.0, "stop_lat": 34.047228, "stop_lon": -118.253407, "stop_url": 0.0, "location_type": 0.0, "parent_station": 0.0, "tpis_name": 0.0, "id": "13598"}, {"stop_id": "2456", "stop_code": 2456, "stop_name": "Hill / 7th", "stop_desc": 0.0, "stop_lat": 34.045763, "stop_lon": -118.254769, "stop_url": 0.0, "location_type": 0.0, "parent_station": 0.0, "tpis_name": 0.0, "id": "2456"}, {"stop_id": "5142", "stop_code": 5142, "stop_name": "Hill / 8th", "stop_desc": 0.0, "stop_lat": 34.044323, "stop_lon": -118.256082, "stop_url": 0.0, "location_type": 0.0, "parent_station": 0.0, "tpis_name": 0.0, "id": "5142"}, {"stop_id": "7439", "stop_code": 7439, "stop_name": "9th / Broadway", "stop_desc": 0.0, "stop_lat": 34.042361, "stop_lon": -118.25633, "stop_url": 0.0, "location_type": 0.0, "parent_station": 0.0, "tpis_name": 0.0, "id": "7439"}, {"stop_id": "13714", "stop_code": 13714, "stop_name": "Main / 9th", "stop_desc": 0.0, "stop_lat": 34.041362, "stop_lon": -118.255611, "stop_url": 0.0, "location_type": 0.0, "parent_station": 0.0, "tpis_name": 0.0, "id": "13714"}, {"stop_id": "13700", "stop_code": 13700, "stop_name": "Main / 11th", "stop_desc": 0.0, "stop_lat": 34.039265, "stop_lon": -118.258176, "stop_url": 0.0, "location_type": 0.0, "parent_station": 0.0, "tpis_name": 0.0, "id": "13700"}, {"stop_id": "13716", "stop_code": 13716, "stop_name": "Main / Pico", "stop_desc": 0.0, "stop_lat": 34.036791, "stop_lon": -118.260178, "stop_url": 0.0, "location_type": 0.0, "parent_station": 0.0, "tpis_name": 0.0, "id": "13716"}, {"stop_id": "11606", "stop_code": 11606, "stop_name": "Main / Venice", "stop_desc": 0.0, "stop_lat": 34.033801, "stop_lon": -118.262598, "stop_url": 0.0, "location_type": 0.0, "parent_station": 0.0, "tpis_name": 0.0, "id": "11606"}, {"stop_id": "14915", "stop_code": 14915, "stop_name": "Terminal 28 - West Lot", "stop_desc": 0.0, "stop_lat": 34.033504, "stop_lon": -118.265139, "stop_url": 0.0, "location_type": 0.0, "parent_station": 0.0, "tpis_name": 0.0, "id": "14915"}, {"stop_id": "4800003", "stop_code": 4800003, "stop_name": "Main / Washington", "stop_desc": 0.0, "stop_lat": 34.03096, "stop_lon": -118.264873, "stop_url": 0.0, "location_type": 0.0, "parent_station": 0.0, "tpis_name": 0.0, "id": "4800003"}, {"stop_id": "4800004", "stop_code": 4800004, "stop_name": "23rd / Main", "stop_desc": 0.0, "stop_lat": 34.02715, "stop_lon": -118.266957, "stop_url": 0.0, "location_type": 0.0, "parent_station": 0.0, "tpis_name": 0.0, "id": "4800004"}, {"stop_id": "4800005", "stop_code": 4800005, "stop_name": "23rd / Maple", "stop_desc": 0.0, "stop_lat": 34.025815, "stop_lon": -118.264124, "stop_url": 0.0, "location_type": 0.0, "parent_station": 0.0, "tpis_name": 0.0, "id": "4800005"}, {"stop_id": "3154", "stop_code": 3154, "stop_name": "Maple / Adams", "stop_desc": 0.0, "stop_lat": 34.02327, "stop_lon": -118.265631, "stop_url": 0.0, "location_type": 0.0, "parent_station": 0.0, "tpis_name": 0.0, "id": "3154"}, {"stop_id": "3149", "stop_code": 3149, "stop_name": "Maple / 30th", "stop_desc": 0.0, "stop_lat": 34.020477, "stop_lon": -118.267408, "stop_url": 0.0, "location_type": 0.0, "parent_station": 0.0, "tpis_name": 0.0, "id": "3149"}, {"stop_id": "3155", "stop_code": 3155, "stop_name": "Maple / Jefferson", "stop_desc": 0.0, "stop_lat": 34.017351, "stop_lon": -118.269407, "stop_url": 0.0, "location_type": 0.0, "parent_station": 0.0, "tpis_name": 0.0, "id": "3155"}, {"stop_id": "3150", "stop_code": 3150, "stop_name": "Maple / 36th", "stop_desc": 0.0, "stop_lat": 34.015009, "stop_lon": -118.270944, "stop_url": 0.0, "location_type": 0.0, "parent_station": 0.0, "tpis_name": 0.0, "id": "3150"}, {"stop_id": "3151", "stop_code": 3151, "stop_name": "Maple / 38th", "stop_desc": 0.0, "stop_lat": 34.013344, "stop_lon": -118.271998, "stop_url": 0.0, "location_type": 0.0, "parent_station": 0.0, "tpis_name": 0.0, "id": "3151"}, {"stop_id": "3115", "stop_code": 3115, "stop_name": "Main / Martin Luther King Jr", "stop_desc": 0.0, "stop_lat": 34.010864, "stop_lon": -118.274154, "stop_url": 0.0, "location_type": 0.0, "parent_station": 0.0, "tpis_name": 0.0, "id": "3115"}, {"stop_id": "5282", "stop_code": 5282, "stop_name": "Main / 41st", "stop_desc": 0.0, "stop_lat": 34.007968, "stop_lon": -118.274148, "stop_url": 0.0, "location_type": 0.0, "parent_station": 0.0, "tpis_name": 0.0, "id": "5282"}, {"stop_id": "5283", "stop_code": 5283, "stop_name": "Main / 43rd", "stop_desc": 0.0, "stop_lat": 34.005442, "stop_lon": -118.274137, "stop_url": 0.0, "location_type": 0.0, "parent_station": 0.0, "tpis_name": 0.0, "id": "5283"}, {"stop_id": "5280", "stop_code": 5280, "stop_name": "Main / Vernon", "stop_desc": 0.0, "stop_lat": 34.003978, "stop_lon": -118.274129, "stop_url": 0.0, "location_type": 0.0, "parent_station": 0.0, "tpis_name": 0.0, "id": "5280"}, {"stop_id": "5262", "stop_code": 5262, "stop_name": "Main / 46th", "stop_desc": 0.0, "stop_lat": 34.001746, "stop_lon": -118.274121, "stop_url": 0.0, "location_type": 0.0, "parent_station": 0.0, "tpis_name": 0.0, "id": "5262"}, {"stop_id": "5263", "stop_code": 5263, "stop_name": "Main / 47th", "stop_desc": 0.0, "stop_lat": 34.000304, "stop_lon": -118.27412, "stop_url": 0.0, "location_type": 0.0, "parent_station": 0.0, "tpis_name": 0.0, "id": "5263"}, {"stop_id": "5264", "stop_code": 5264, "stop_name": "Main / 49th", "stop_desc": 0.0, "stop_lat": 33.998482, "stop_lon": -118.274111, "stop_url": 0.0, "location_type": 0.0, "parent_station": 0.0, "tpis_name": 0.0, "id": "5264"}, {"stop_id": "5266", "stop_code": 5266, "stop_name": "Main / 51st", "stop_desc": 0.0, "stop_lat": 33.99666, "stop_lon": -118.274105, "stop_url": 0.0, "location_type": 0.0, "parent_station": 0.0, "tpis_name": 0.0, "id": "5266"}, {"stop_id": "5268", "stop_code": 5268, "stop_name": "Main / 54th", "stop_desc": 0.0, "stop_lat": 33.993481, "stop_lon": -118.274091, "stop_url": 0.0, "location_type": 0.0, "parent_station": 0.0, "tpis_name": 0.0, "id": "5268"}, {"stop_id": "5269", "stop_code": 5269, "stop_name": "Main / 55th", "stop_desc": 0.0, "stop_lat": 33.992159, "stop_lon": -118.27409, "stop_url": 0.0, "location_type": 0.0, "parent_station": 0.0, "tpis_name": 0.0, "id": "5269"}, {"stop_id": "5297", "stop_code": 5297, "stop_name": "Main / Slauson", "stop_desc": 0.0, "stop_lat": 33.988939, "stop_lon": -118.274073, "stop_url": 0.0, "location_type": 0.0, "parent_station": 0.0, "tpis_name": 0.0, "id": "5297"}, {"stop_id": "5285", "stop_code": 5285, "stop_name": "Main / 59th", "stop_desc": 0.0, "stop_lat": 33.985848, "stop_lon": -118.274073, "stop_url": 0.0, "location_type": 0.0, "parent_station": 0.0, "tpis_name": 0.0, "id": "5285"}, {"stop_id": "5290", "stop_code": 5290, "stop_name": "Main / 61st", "stop_desc": 0.0, "stop_lat": 33.984042, "stop_lon": -118.274074, "stop_url": 0.0, "location_type": 0.0, "parent_station": 0.0, "tpis_name": 0.0, "id": "5290"}, {"stop_id": "9984", "stop_code": 9984, "stop_name": "Gage / Main", "stop_desc": 0.0, "stop_lat": 33.982332, "stop_lon": -118.273424, "stop_url": 0.0, "location_type": 0.0, "parent_station": 0.0, "tpis_name": 0.0, "id": "9984"}, {"stop_id": "1453", "stop_code": 1453, "stop_name": "Gage / San Pedro", "stop_desc": 0.0, "stop_lat": 33.982346, "stop_lon": -118.269707, "stop_url": 0.0, "location_type": 0.0, "parent_station": 0.0, "tpis_name": 0.0, "id": "1453"}, {"stop_id": "5487", "stop_code": 5487, "stop_name": "San Pedro / 67th", "stop_desc": 0.0, "stop_lat": 33.978947, "stop_lon": -118.269656, "stop_url": 0.0, "location_type": 0.0, "parent_station": 0.0, "tpis_name": 0.0, "id": "5487"}, {"stop_id": "5500", "stop_code": 5500, "stop_name": "San Pedro / Florence", "stop_desc": 0.0, "stop_lat": 33.97486, "stop_lon": -118.269653, "stop_url": 0.0, "location_type": 0.0, "parent_station": 0.0, "tpis_name": 0.0, "id": "5500"}, {"stop_id": "5489", "stop_code": 5489, "stop_name": "San Pedro / 76th", "stop_desc": 0.0, "stop_lat": 33.971461, "stop_lon": -118.269645, "stop_url": 0.0, "location_type": 0.0, "parent_station": 0.0, "tpis_name": 0.0, "id": "5489"}, {"stop_id": "25260", "stop_code": 25260, "stop_name": "San Pedro / 77th", "stop_desc": 0.0, "stop_lat": 33.969782, "stop_lon": -118.26964, "stop_url": 0.0, "location_type": 0.0, "parent_station": 0.0, "tpis_name": 0.0, "id": "25260"}, {"stop_id": "5881", "stop_code": 5881, "stop_name": "San Pedro / 79th", "stop_desc": 0.0, "stop_lat": 33.968024, "stop_lon": -118.269634, "stop_url": 0.0, "location_type": 0.0, "parent_station": 0.0, "tpis_name": 0.0, "id": "5881"}, {"stop_id": "5492", "stop_code": 5492, "stop_name": "San Pedro / 83rd", "stop_desc": 0.0, "stop_lat": 33.963883, "stop_lon": -118.269618, "stop_url": 0.0, "location_type": 0.0, "parent_station": 0.0, "tpis_name": 0.0, "id": "5492"}, {"stop_id": "1556", "stop_code": 1556, "stop_name": "San Pedro / Manchester", "stop_desc": 0.0, "stop_lat": 33.959846, "stop_lon": -118.269651, "stop_url": 0.0, "location_type": 0.0, "parent_station": 0.0, "tpis_name": 0.0, "id": "1556"}, {"stop_id": "5493", "stop_code": 5493, "stop_name": "San Pedro / 88th", "stop_desc": 0.0, "stop_lat": 33.956216, "stop_lon": -118.269656, "stop_url": 0.0, "location_type": 0.0, "parent_station": 0.0, "tpis_name": 0.0, "id": "5493"}, {"stop_id": "5495", "stop_code": 5495, "stop_name": "San Pedro / 92nd", "stop_desc": 0.0, "stop_lat": 33.953018, "stop_lon": -118.269662, "stop_url": 0.0, "location_type": 0.0, "parent_station": 0.0, "tpis_name": 0.0, "id": "5495"}, {"stop_id": "5499", "stop_code": 5499, "stop_name": "San Pedro / Colden", "stop_desc": 0.0, "stop_lat": 33.948948, "stop_lon": -118.269662, "stop_url": 0.0, "location_type": 0.0, "parent_station": 0.0, "tpis_name": 0.0, "id": "5499"}, {"stop_id": "5498", "stop_code": 5498, "stop_name": "San Pedro / Century", "stop_desc": 0.0, "stop_lat": 33.945733, "stop_lon": -118.269668, "stop_url": 0.0, "location_type": 0.0, "parent_station": 0.0, "tpis_name": 0.0, "id": "5498"}, {"stop_id": "5473", "stop_code": 5473, "stop_name": "San Pedro / 104th", "stop_desc": 0.0, "stop_lat": 33.942079, "stop_lon": -118.26967, "stop_url": 0.0, "location_type": 0.0, "parent_station": 0.0, "tpis_name": 0.0, "id": "5473"}, {"stop_id": "5474", "stop_code": 5474, "stop_name": "San Pedro / 108th", "stop_desc": 0.0, "stop_lat": 33.938028, "stop_lon": -118.26966, "stop_url": 0.0, "location_type": 0.0, "parent_station": 0.0, "tpis_name": 0.0, "id": "5474"}, {"stop_id": "5475", "stop_code": 5475, "stop_name": "San Pedro / 109th", "stop_desc": 0.0, "stop_lat": 33.936272, "stop_lon": -118.269664, "stop_url": 0.0, "location_type": 0.0, "parent_station": 0.0, "tpis_name": 0.0, "id": "5475"}, {"stop_id": "5476", "stop_code": 5476, "stop_name": "San Pedro / 111th", "stop_desc": 0.0, "stop_lat": 33.934077, "stop_lon": -118.26967, "stop_url": 0.0, "location_type": 0.0, "parent_station": 0.0, "tpis_name": 0.0, "id": "5476"}, {"stop_id": "4713", "stop_code": 4713, "stop_name": "San Pedro / Imperial", "stop_desc": 0.0, "stop_lat": 33.930635, "stop_lon": -118.269678, "stop_url": 0.0, "location_type": 0.0, "parent_station": 0.0, "tpis_name": 0.0, "id": "4713"}, {"stop_id": "5477", "stop_code": 5477, "stop_name": "San Pedro / 116th", "stop_desc": 0.0, "stop_lat": 33.928405, "stop_lon": -118.269715, "stop_url": 0.0, "location_type": 0.0, "parent_station": 0.0, "tpis_name": 0.0, "id": "5477"}, {"stop_id": "9673", "stop_code": 9673, "stop_name": "120th / San Pedro", "stop_desc": 0.0, "stop_lat": 33.92363, "stop_lon": -118.269221, "stop_url": 0.0, "location_type": 0.0, "parent_station": 0.0, "tpis_name": 0.0, "id": "9673"}, {"stop_id": "8828", "stop_code": 8828, "stop_name": "Avalon / 120th", "stop_desc": 0.0, "stop_lat": 33.923997, "stop_lon": -118.265043, "stop_url": 0.0, "location_type": 0.0, "parent_station": 0.0, "tpis_name": 0.0, "id": "8828"}, {"stop_id": "8818", "stop_code": 8818, "stop_name": "Avalon Station", "stop_desc": 0.0, "stop_lat": 33.927731, "stop_lon": -118.265018, "stop_url": 0.0, "location_type": 0.0, "parent_station": 0.0, "tpis_name": 0.0, "id": "8818"}, {"stop_id": "3121", "stop_code": 3121, "stop_name": "Main / 16th", "stop_desc": 0.0, "stop_lat": 34.033659, "stop_lon": -118.262347, "stop_url": 0.0, "location_type": 0.0, "parent_station": 0.0, "tpis_name": 0.0, "id": "3121"}, {"stop_id": "5279", "stop_code": 5279, "stop_name": "Main / Pico", "stop_desc": 0.0, "stop_lat": 34.036145, "stop_lon": -118.260335, "stop_url": 0.0, "location_type": 0.0, "parent_station": 0.0, "tpis_name": 0.0, "id": "5279"}, {"stop_id": "1131", "stop_code": 1131, "stop_name": "Main / 11th", "stop_desc": 0.0, "stop_lat": 34.038897, "stop_lon": -118.258109, "stop_url": 0.0, "location_type": 0.0, "parent_station": 0.0, "tpis_name": 0.0, "id": "1131"}, {"stop_id": "5292", "stop_code": 5292, "stop_name": "Main / 9th", "stop_desc": 0.0, "stop_lat": 34.04141, "stop_lon": -118.255014, "stop_url": 0.0, "location_type": 0.0, "parent_station": 0.0, "tpis_name": 0.0, "id": "5292"}, {"stop_id": "15778", "stop_code": 15778, "stop_name": "8th / Broadway", "stop_desc": 0.0, "stop_lat": 34.043736, "stop_lon": -118.254466, "stop_url": 0.0, "location_type": 0.0, "parent_station": 0.0, "tpis_name": 0.0, "id": "15778"}, {"stop_id": "15788", "stop_code": 15788, "stop_name": "8th / Hill", "stop_desc": 0.0, "stop_lat": 34.044456, "stop_lon": -118.255561, "stop_url": 0.0, "location_type": 0.0, "parent_station": 0.0, "tpis_name": 0.0, "id": "15788"}, {"stop_id": "13600", "stop_code": 13600, "stop_name": "Hill / 7th", "stop_desc": 0.0, "stop_lat": 34.045695, "stop_lon": -118.254528, "stop_url": 0.0, "location_type": 0.0, "parent_station": 0.0, "tpis_name": 0.0, "id": "13600"}, {"stop_id": "40", "stop_code": 40, "stop_name": "Hill / 5th", "stop_desc": 0.0, "stop_lat": 34.048591, "stop_lon": -118.251764, "stop_url": 0.0, "location_type": 0.0, "parent_station": 0.0, "tpis_name": 0.0, "id": "40"}, {"stop_id": "12409", "stop_code": 12409, "stop_name": "Hill / 4th", "stop_desc": 0.0, "stop_lat": 34.050406, "stop_lon": -118.250139, "stop_url": 0.0, "location_type": 0.0, "parent_station": 0.0, "tpis_name": 0.0, "id": "12409"}, {"stop_id": "4771", "stop_code": 4771, "stop_name": "Hill / 3rd", "stop_desc": 0.0, "stop_lat": 34.051807, "stop_lon": -118.248822, "stop_url": 0.0, "location_type": 0.0, "parent_station": 0.0, "tpis_name": 0.0, "id": "4771"}, {"stop_id": "12102", "stop_code": 12102, "stop_name": "Hill / 1st", "stop_desc": 0.0, "stop_lat": 34.054753, "stop_lon": -118.246042, "stop_url": 0.0, "location_type": 0.0, "parent_station": 0.0, "tpis_name": 0.0, "id": "12102"}, {"stop_id": "8095", "stop_code": 8095, "stop_name": "Temple / Grand", "stop_desc": 0.0, "stop_lat": 34.058448, "stop_lon": -118.246584, "stop_url": 0.0, "location_type": 0.0, "parent_station": 0.0, "tpis_name": 0.0, "id": "8095"}, {"stop_id": "8093", "stop_code": 8093, "stop_name": "Temple / Figueroa", "stop_desc": 0.0, "stop_lat": 34.060238, "stop_lon": -118.248712, "stop_url": 0.0, "location_type": 0.0, "parent_station": 0.0, "tpis_name": 0.0, "id": "8093"}, {"stop_id": "8088", "stop_code": 8088, "stop_name": "Temple / Beaudry", "stop_desc": 0.0, "stop_lat": 34.063145, "stop_lon": -118.251105, "stop_url": 0.0, "location_type": 0.0, "parent_station": 0.0, "tpis_name": 0.0, "id": "8088"}, {"stop_id": "16376", "stop_code": 16376, "stop_name": "Temple / Boylston", "stop_desc": 0.0, "stop_lat": 34.064778, "stop_lon": -118.25246, "stop_url": 0.0, "location_type": 0.0, "parent_station": 0.0, "tpis_name": 0.0, "id": "16376"}, {"stop_id": "8966", "stop_code": 8966, "stop_name": "Temple / Edgeware", "stop_desc": 0.0, "stop_lat": 34.066957, "stop_lon": -118.254761, "stop_url": 0.0, "location_type": 0.0, "parent_station": 0.0, "tpis_name": 0.0, "id": "8966"}, {"stop_id": "16371", "stop_code": 16371, "stop_name": "Temple / Douglas", "stop_desc": 0.0, "stop_lat": 34.067464, "stop_lon": -118.256876, "stop_url": 0.0, "location_type": 0.0, "parent_station": 0.0, "tpis_name": 0.0, "id": "16371"}, {"stop_id": "16373", "stop_code": 16373, "stop_name": "Temple / Glendale", "stop_desc": 0.0, "stop_lat": 34.068242, "stop_lon": -118.260666, "stop_url": 0.0, "location_type": 0.0, "parent_station": 0.0, "tpis_name": 0.0, "id": "16373"}, {"stop_id": "16369", "stop_code": 16369, "stop_name": "Temple / Belmont", "stop_desc": 0.0, "stop_lat": 34.068914, "stop_lon": -118.263484, "stop_url": 0.0, "location_type": 0.0, "parent_station": 0.0, "tpis_name": 0.0, "id": "16369"}, {"stop_id": "4723", "stop_code": 4723, "stop_name": "Temple / Bonnie Brae", "stop_desc": 0.0, "stop_lat": 34.069609, "stop_lon": -118.265598, "stop_url": 0.0, "location_type": 0.0, "parent_station": 0.0, "tpis_name": 0.0, "id": "4723"}, {"stop_id": "12425", "stop_code": 12425, "stop_name": "Temple / Alvarado", "stop_desc": 0.0, "stop_lat": 34.07032, "stop_lon": -118.267755, "stop_url": 0.0, "location_type": 0.0, "parent_station": 0.0, "tpis_name": 0.0, "id": "12425"}, {"stop_id": "12426", "stop_code": 12426, "stop_name": "Temple / Rosemont", "stop_desc": 0.0, "stop_lat": 34.07118, "stop_lon": -118.270406, "stop_url": 0.0, "location_type": 0.0, "parent_station": 0.0, "tpis_name": 0.0, "id": "12426"}, {"stop_id": "4724", "stop_code": 4724, "stop_name": "Temple / Park View", "stop_desc": 0.0, "stop_lat": 34.071772, "stop_lon": -118.272113, "stop_url": 0.0, "location_type": 0.0, "parent_station": 0.0, "tpis_name": 0.0, "id": "4724"}, {"stop_id": "16384", "stop_code": 16384, "stop_name": "Temple / Rampart", "stop_desc": 0.0, "stop_lat": 34.072594, "stop_lon": -118.274634, "stop_url": 0.0, "location_type": 0.0, "parent_station": 0.0, "tpis_name": 0.0, "id": "16384"}, {"stop_id": "16383", "stop_code": 16383, "stop_name": "Temple / Occidental", "stop_desc": 0.0, "stop_lat": 34.073936, "stop_lon": -118.277749, "stop_url": 0.0, "location_type": 0.0, "parent_station": 0.0, "tpis_name": 0.0, "id": "16383"}, {"stop_id": "16386", "stop_code": 16386, "stop_name": "Temple / Vendome", "stop_desc": 0.0, "stop_lat": 34.075116, "stop_lon": -118.280464, "stop_url": 0.0, "location_type": 0.0, "parent_station": 0.0, "tpis_name": 0.0, "id": "16386"}, {"stop_id": "16388", "stop_code": 16388, "stop_name": "Temple / Robinson", "stop_desc": 0.0, "stop_lat": 34.075729, "stop_lon": -118.281853, "stop_url": 0.0, "location_type": 0.0, "parent_station": 0.0, "tpis_name": 0.0, "id": "16388"}, {"stop_id": "16382", "stop_code": 16382, "stop_name": "Temple / Hoover", "stop_desc": 0.0, "stop_lat": 34.076702, "stop_lon": -118.283957, "stop_url": 0.0, "location_type": 0.0, "parent_station": 0.0, "tpis_name": 0.0, "id": "16382"}, {"stop_id": "11061", "stop_code": 11061, "stop_name": "Hoover / Plata", "stop_desc": 0.0, "stop_lat": 34.078595, "stop_lon": -118.2843, "stop_url": 0.0, "location_type": 0.0, "parent_station": 0.0, "tpis_name": 0.0, "id": "11061"}, {"stop_id": "12117", "stop_code": 12117, "stop_name": "Hoover / Bellevue", "stop_desc": 0.0, "stop_lat": 34.080562, "stop_lon": -118.284313, "stop_url": 0.0, "location_type": 0.0, "parent_station": 0.0, "tpis_name": 0.0, "id": "12117"}, {"stop_id": "12118", "stop_code": 12118, "stop_name": "Hoover / Clinton", "stop_desc": 0.0, "stop_lat": 34.081565, "stop_lon": -118.284373, "stop_url": 0.0, "location_type": 0.0, "parent_station": 0.0, "tpis_name": 0.0, "id": "12118"}, {"stop_id": "24252", "stop_code": 24252, "stop_name": "Clinton / Virgil", "stop_desc": 0.0, "stop_lat": 34.081851, "stop_lon": -118.286646, "stop_url": 0.0, "location_type": 0.0, "parent_station": 0.0, "tpis_name": 0.0, "id": "24252"}, {"stop_id": "24250", "stop_code": 24250, "stop_name": "Melrose / Virgil", "stop_desc": 0.0, "stop_lat": 34.083729, "stop_lon": -118.287158, "stop_url": 0.0, "location_type": 0.0, "parent_station": 0.0, "tpis_name": 0.0, "id": "24250"}, {"stop_id": "11719", "stop_code": 11719, "stop_name": "Melrose / Vermont", "stop_desc": 0.0, "stop_lat": 34.083728, "stop_lon": -118.292234, "stop_url": 0.0, "location_type": 0.0, "parent_station": 0.0, "tpis_name": 0.0, "id": "11719"}, {"stop_id": "11698", "stop_code": 11698, "stop_name": "Melrose / Edgemont", "stop_desc": 0.0, "stop_lat": 34.083711, "stop_lon": -118.295863, "stop_url": 0.0, "location_type": 0.0, "parent_station": 0.0, "tpis_name": 0.0, "id": "11698"}, {"stop_id": "11688", "stop_code": 11688, "stop_name": "Melrose / Alexandria", "stop_desc": 0.0, "stop_lat": 34.083701, "stop_lon": -118.297617, "stop_url": 0.0, "location_type": 0.0, "parent_station": 0.0, "tpis_name": 0.0, "id": "11688"}, {"stop_id": "11711", "stop_code": 11711, "stop_name": "Melrose / Normandie", "stop_desc": 0.0, "stop_lat": 34.083694, "stop_lon": -118.300282, "stop_url": 0.0, "location_type": 0.0, "parent_station": 0.0, "tpis_name": 0.0, "id": "11711"}, {"stop_id": "11702", "stop_code": 11702, "stop_name": "Melrose / Harvard", "stop_desc": 0.0, "stop_lat": 34.083677, "stop_lon": -118.30409, "stop_url": 0.0, "location_type": 0.0, "parent_station": 0.0, "tpis_name": 0.0, "id": "11702"}, {"stop_id": "11721", "stop_code": 11721, "stop_name": "Melrose / Western", "stop_desc": 0.0, "stop_lat": 34.083652, "stop_lon": -118.309463, "stop_url": 0.0, "location_type": 0.0, "parent_station": 0.0, "tpis_name": 0.0, "id": "11721"}, {"stop_id": "11722", "stop_code": 11722, "stop_name": "Melrose / Wilton", "stop_desc": 0.0, "stop_lat": 34.083645, "stop_lon": -118.313346, "stop_url": 0.0, "location_type": 0.0, "parent_station": 0.0, "tpis_name": 0.0, "id": "11722"}, {"stop_id": "11718", "stop_code": 11718, "stop_name": "Melrose / Van Ness", "stop_desc": 0.0, "stop_lat": 34.083663, "stop_lon": -118.315969, "stop_url": 0.0, "location_type": 0.0, "parent_station": 0.0, "tpis_name": 0.0, "id": "11718"}, {"stop_id": "11723", "stop_code": 11723, "stop_name": "Melrose / Windsor", "stop_desc": 0.0, "stop_lat": 34.08364, "stop_lon": -118.31937, "stop_url": 0.0, "location_type": 0.0, "parent_station": 0.0, "tpis_name": 0.0, "id": "11723"}, {"stop_id": "11707", "stop_code": 11707, "stop_name": "Melrose / Larchmont", "stop_desc": 0.0, "stop_lat": 34.083623, "stop_lon": -118.323498, "stop_url": 0.0, "location_type": 0.0, "parent_station": 0.0, "tpis_name": 0.0, "id": "11707"}, {"stop_id": "11691", "stop_code": 11691, "stop_name": "Melrose / Vine", "stop_desc": 0.0, "stop_lat": 34.083617, "stop_lon": -118.326943, "stop_url": 0.0, "location_type": 0.0, "parent_station": 0.0, "tpis_name": 0.0, "id": "11691"}, {"stop_id": "11724", "stop_code": 11724, "stop_name": "Melrose / Wilcox", "stop_desc": 0.0, "stop_lat": 34.083601, "stop_lon": -118.330803, "stop_url": 0.0, "location_type": 0.0, "parent_station": 0.0, "tpis_name": 0.0, "id": "11724"}, {"stop_id": "11704", "stop_code": 11704, "stop_name": "Melrose / June", "stop_desc": 0.0, "stop_lat": 34.083622, "stop_lon": -118.334014, "stop_url": 0.0, "location_type": 0.0, "parent_station": 0.0, "tpis_name": 0.0, "id": "11704"}, {"stop_id": "11703", "stop_code": 11703, "stop_name": "Melrose / Highland", "stop_desc": 0.0, "stop_lat": 34.083595, "stop_lon": -118.338905, "stop_url": 0.0, "location_type": 0.0, "parent_station": 0.0, "tpis_name": 0.0, "id": "11703"}, {"stop_id": "11705", "stop_code": 11705, "stop_name": "Melrose / La Brea", "stop_desc": 0.0, "stop_lat": 34.083578, "stop_lon": -118.343881, "stop_url": 0.0, "location_type": 0.0, "parent_station": 0.0, "tpis_name": 0.0, "id": "11705"}, {"stop_id": "11715", "stop_code": 11715, "stop_name": "Melrose / Poinsettia", "stop_desc": 0.0, "stop_lat": 34.083675, "stop_lon": -118.348476, "stop_url": 0.0, "location_type": 0.0, "parent_station": 0.0, "tpis_name": 0.0, "id": "11715"}, {"stop_id": "11710", "stop_code": 11710, "stop_name": "Melrose / Martel", "stop_desc": 0.0, "stop_lat": 34.083738, "stop_lon": -118.351435, "stop_url": 0.0, "location_type": 0.0, "parent_station": 0.0, "tpis_name": 0.0, "id": "11710"}, {"stop_id": "11700", "stop_code": 11700, "stop_name": "Melrose / Gardner", "stop_desc": 0.0, "stop_lat": 34.083774, "stop_lon": -118.353053, "stop_url": 0.0, "location_type": 0.0, "parent_station": 0.0, "tpis_name": 0.0, "id": "11700"}, {"stop_id": "11717", "stop_code": 11717, "stop_name": "Melrose / Spaulding", "stop_desc": 0.0, "stop_lat": 34.083864, "stop_lon": -118.357195, "stop_url": 0.0, "location_type": 0.0, "parent_station": 0.0, "tpis_name": 0.0, "id": "11717"}, {"stop_id": "11712", "stop_code": 11712, "stop_name": "Melrose / Ogden", "stop_desc": 0.0, "stop_lat": 34.083922, "stop_lon": -118.359778, "stop_url": 0.0, "location_type": 0.0, "parent_station": 0.0, "tpis_name": 0.0, "id": "11712"}, {"stop_id": "11699", "stop_code": 11699, "stop_name": "Melrose / Fairfax", "stop_desc": 0.0, "stop_lat": 34.083955, "stop_lon": -118.361773, "stop_url": 0.0, "location_type": 0.0, "parent_station": 0.0, "tpis_name": 0.0, "id": "11699"}, {"stop_id": "11697", "stop_code": 11697, "stop_name": "Melrose / Crescent Heights", "stop_desc": 0.0, "stop_lat": 34.083893, "stop_lon": -118.365719, "stop_url": 0.0, "location_type": 0.0, "parent_station": 0.0, "tpis_name": 0.0, "id": "11697"}, {"stop_id": "11701", "stop_code": 11701, "stop_name": "Melrose / Harper", "stop_desc": 0.0, "stop_lat": 34.083842, "stop_lon": -118.368903, "stop_url": 0.0, "location_type": 0.0, "parent_station": 0.0, "tpis_name": 0.0, "id": "11701"}, {"stop_id": "11714", "stop_code": 11714, "stop_name": "Melrose / Orlando", "stop_desc": 0.0, "stop_lat": 34.083714, "stop_lon": -118.373067, "stop_url": 0.0, "location_type": 0.0, "parent_station": 0.0, "tpis_name": 0.0, "id": "11714"}, {"stop_id": "11706", "stop_code": 11706, "stop_name": "Melrose / La Cienega", "stop_desc": 0.0, "stop_lat": 34.082081, "stop_lon": -118.376851, "stop_url": 0.0, "location_type": 0.0, "parent_station": 0.0, "tpis_name": 0.0, "id": "11706"}, {"stop_id": "11694", "stop_code": 11694, "stop_name": "Melrose / Huntley", "stop_desc": 0.0, "stop_lat": 34.082114, "stop_lon": -118.38054, "stop_url": 0.0, "location_type": 0.0, "parent_station": 0.0, "tpis_name": 0.0, "id": "11694"}, {"stop_id": "11716", "stop_code": 11716, "stop_name": "San Vicente / Melrose", "stop_desc": 0.0, "stop_lat": 34.081682, "stop_lon": -118.383173, "stop_url": 0.0, "location_type": 0.0, "parent_station": 0.0, "tpis_name": 0.0, "id": "11716"}, {"stop_id": "1731", "stop_code": 1731, "stop_name": "Avalon Station Layover", "stop_desc": 0.0, "stop_lat": 33.928061, "stop_lon": -118.265003, "stop_url": 0.0, "location_type": 0.0, "parent_station": 0.0, "tpis_name": 0.0, "id": "1731"}, {"stop_id": "1503", "stop_code": 1503, "stop_name": "Imperial / Avalon", "stop_desc": 0.0, "stop_lat": 33.931187, "stop_lon": -118.265488, "stop_url": 0.0, "location_type": 0.0, "parent_station": 0.0, "tpis_name": 0.0, "id": "1503"}, {"stop_id": "10050", "stop_code": 10050, "stop_name": "Imperial / San Pedro", "stop_desc": 0.0, "stop_lat": 33.931324, "stop_lon": -118.269345, "stop_url": 0.0, "location_type": 0.0, "parent_station": 0.0, "tpis_name": 0.0, "id": "10050"}, {"stop_id": "13867", "stop_code": 13867, "stop_name": "San Pedro / 111th", "stop_desc": 0.0, "stop_lat": 33.934267, "stop_lon": -118.26948, "stop_url": 0.0, "location_type": 0.0, "parent_station": 0.0, "tpis_name": 0.0, "id": "13867"}, {"stop_id": "13864", "stop_code": 13864, "stop_name": "San Pedro / 110th", "stop_desc": 0.0, "stop_lat": 33.936174, "stop_lon": -118.26936, "stop_url": 0.0, "location_type": 0.0, "parent_station": 0.0, "tpis_name": 0.0, "id": "13864"}, {"stop_id": "13866", "stop_code": 13866, "stop_name": "San Pedro / 108th", "stop_desc": 0.0, "stop_lat": 33.938092, "stop_lon": -118.269304, "stop_url": 0.0, "location_type": 0.0, "parent_station": 0.0, "tpis_name": 0.0, "id": "13866"}, {"stop_id": "13865", "stop_code": 13865, "stop_name": "San Pedro / 104th", "stop_desc": 0.0, "stop_lat": 33.941804, "stop_lon": -118.269365, "stop_url": 0.0, "location_type": 0.0, "parent_station": 0.0, "tpis_name": 0.0, "id": "13865"}, {"stop_id": "13889", "stop_code": 13889, "stop_name": "San Pedro / Century", "stop_desc": 0.0, "stop_lat": 33.945871, "stop_lon": -118.269362, "stop_url": 0.0, "location_type": 0.0, "parent_station": 0.0, "tpis_name": 0.0, "id": "13889"}, {"stop_id": "13890", "stop_code": 13890, "stop_name": "San Pedro / Colden", "stop_desc": 0.0, "stop_lat": 33.949086, "stop_lon": -118.269359, "stop_url": 0.0, "location_type": 0.0, "parent_station": 0.0, "tpis_name": 0.0, "id": "13890"}, {"stop_id": "13886", "stop_code": 13886, "stop_name": "San Pedro / 92nd", "stop_desc": 0.0, "stop_lat": 33.952744, "stop_lon": -118.269358, "stop_url": 0.0, "location_type": 0.0, "parent_station": 0.0, "tpis_name": 0.0, "id": "13886"}, {"stop_id": "13884", "stop_code": 13884, "stop_name": "San Pedro / 88th", "stop_desc": 0.0, "stop_lat": 33.956354, "stop_lon": -118.26935, "stop_url": 0.0, "location_type": 0.0, "parent_station": 0.0, "tpis_name": 0.0, "id": "13884"}, {"stop_id": "13892", "stop_code": 13892, "stop_name": "San Pedro / Manchester", "stop_desc": 0.0, "stop_lat": 33.959957, "stop_lon": -118.269351, "stop_url": 0.0, "location_type": 0.0, "parent_station": 0.0, "tpis_name": 0.0, "id": "13892"}, {"stop_id": "5491", "stop_code": 5491, "stop_name": "San Pedro / 83rd", "stop_desc": 0.0, "stop_lat": 33.963581, "stop_lon": -118.269379, "stop_url": 0.0, "location_type": 0.0, "parent_station": 0.0, "tpis_name": 0.0, "id": "5491"}, {"stop_id": "5490", "stop_code": 5490, "stop_name": "San Pedro / 79th", "stop_desc": 0.0, "stop_lat": 33.967197, "stop_lon": -118.269401, "stop_url": 0.0, "location_type": 0.0, "parent_station": 0.0, "tpis_name": 0.0, "id": "5490"}, {"stop_id": "13880", "stop_code": 13880, "stop_name": "San Pedro / 78th", "stop_desc": 0.0, "stop_lat": 33.969077, "stop_lon": -118.2694, "stop_url": 0.0, "location_type": 0.0, "parent_station": 0.0, "tpis_name": 0.0, "id": "13880"}, {"stop_id": "13879", "stop_code": 13879, "stop_name": "San Pedro / 76th", "stop_desc": 0.0, "stop_lat": 33.971187, "stop_lon": -118.269407, "stop_url": 0.0, "location_type": 0.0, "parent_station": 0.0, "tpis_name": 0.0, "id": "13879"}, {"stop_id": "13891", "stop_code": 13891, "stop_name": "San Pedro / Florence", "stop_desc": 0.0, "stop_lat": 33.974586, "stop_lon": -118.269415, "stop_url": 0.0, "location_type": 0.0, "parent_station": 0.0, "tpis_name": 0.0, "id": "13891"}, {"stop_id": "13877", "stop_code": 13877, "stop_name": "San Pedro / 67th", "stop_desc": 0.0, "stop_lat": 33.978672, "stop_lon": -118.269418, "stop_url": 0.0, "location_type": 0.0, "parent_station": 0.0, "tpis_name": 0.0, "id": "13877"}, {"stop_id": "9985", "stop_code": 9985, "stop_name": "Gage / San Pedro", "stop_desc": 0.0, "stop_lat": 33.982543, "stop_lon": -118.269872, "stop_url": 0.0, "location_type": 0.0, "parent_station": 0.0, "tpis_name": 0.0, "id": "9985"}, {"stop_id": "9983", "stop_code": 9983, "stop_name": "Gage / Main", "stop_desc": 0.0, "stop_lat": 33.982532, "stop_lon": -118.273689, "stop_url": 0.0, "location_type": 0.0, "parent_station": 0.0, "tpis_name": 0.0, "id": "9983"}, {"stop_id": "5227", "stop_code": 5227, "stop_name": "Main / 61st", "stop_desc": 0.0, "stop_lat": 33.984455, "stop_lon": -118.273764, "stop_url": 0.0, "location_type": 0.0, "parent_station": 0.0, "tpis_name": 0.0, "id": "5227"}, {"stop_id": "13712", "stop_code": 13712, "stop_name": "Main / 59th", "stop_desc": 0.0, "stop_lat": 33.985917, "stop_lon": -118.273766, "stop_url": 0.0, "location_type": 0.0, "parent_station": 0.0, "tpis_name": 0.0, "id": "13712"}, {"stop_id": "28259", "stop_code": 28259, "stop_name": "Main / Slauson", "stop_desc": 0.0, "stop_lat": 33.989077, "stop_lon": -118.27377, "stop_url": 0.0, "location_type": 0.0, "parent_station": 0.0, "tpis_name": 0.0, "id": "28259"}, {"stop_id": "5237", "stop_code": 5237, "stop_name": "Main / 55th", "stop_desc": 0.0, "stop_lat": 33.992641, "stop_lon": -118.273784, "stop_url": 0.0, "location_type": 0.0, "parent_station": 0.0, "tpis_name": 0.0, "id": "5237"}, {"stop_id": "5243", "stop_code": 5243, "stop_name": "Main / 54th", "stop_desc": 0.0, "stop_lat": 33.99355, "stop_lon": -118.273784, "stop_url": 0.0, "location_type": 0.0, "parent_station": 0.0, "tpis_name": 0.0, "id": "5243"}, {"stop_id": "13709", "stop_code": 13709, "stop_name": "Main / 53rd", "stop_desc": 0.0, "stop_lat": 33.994111, "stop_lon": -118.273789, "stop_url": 0.0, "location_type": 0.0, "parent_station": 0.0, "tpis_name": 0.0, "id": "13709"}, {"stop_id": "5250", "stop_code": 5250, "stop_name": "Main / 51st", "stop_desc": 0.0, "stop_lat": 33.99673, "stop_lon": -118.273798, "stop_url": 0.0, "location_type": 0.0, "parent_station": 0.0, "tpis_name": 0.0, "id": "5250"}, {"stop_id": "13707", "stop_code": 13707, "stop_name": "Main / 49th", "stop_desc": 0.0, "stop_lat": 33.998208, "stop_lon": -118.273806, "stop_url": 0.0, "location_type": 0.0, "parent_station": 0.0, "tpis_name": 0.0, "id": "13707"}, {"stop_id": "13706", "stop_code": 13706, "stop_name": "Main / 47th", "stop_desc": 0.0, "stop_lat": 33.999961, "stop_lon": -118.273815, "stop_url": 0.0, "location_type": 0.0, "parent_station": 0.0, "tpis_name": 0.0, "id": "13706"}, {"stop_id": "13718", "stop_code": 13718, "stop_name": "Main / 46th", "stop_desc": 0.0, "stop_lat": 34.001885, "stop_lon": -118.273818, "stop_url": 0.0, "location_type": 0.0, "parent_station": 0.0, "tpis_name": 0.0, "id": "13718"}, {"stop_id": "13717", "stop_code": 13717, "stop_name": "Main / Vernon", "stop_desc": 0.0, "stop_lat": 34.003649, "stop_lon": -118.273824, "stop_url": 0.0, "location_type": 0.0, "parent_station": 0.0, "tpis_name": 0.0, "id": "13717"}, {"stop_id": "5257", "stop_code": 5257, "stop_name": "Main / 43rd", "stop_desc": 0.0, "stop_lat": 34.005891, "stop_lon": -118.273828, "stop_url": 0.0, "location_type": 0.0, "parent_station": 0.0, "tpis_name": 0.0, "id": "5257"}, {"stop_id": "5278", "stop_code": 5278, "stop_name": "Main / 41st", "stop_desc": 0.0, "stop_lat": 34.008379, "stop_lon": -118.273836, "stop_url": 0.0, "location_type": 0.0, "parent_station": 0.0, "tpis_name": 0.0, "id": "5278"}, {"stop_id": "11600", "stop_code": 11600, "stop_name": "Main / Martin Luther King Jr", "stop_desc": 0.0, "stop_lat": 34.010947, "stop_lon": -118.273851, "stop_url": 0.0, "location_type": 0.0, "parent_station": 0.0, "tpis_name": 0.0, "id": "11600"}, {"stop_id": "11644", "stop_code": 11644, "stop_name": "Maple / 38th", "stop_desc": 0.0, "stop_lat": 34.013037, "stop_lon": -118.272003, "stop_url": 0.0, "location_type": 0.0, "parent_station": 0.0, "tpis_name": 0.0, "id": "11644"}, {"stop_id": "25258", "stop_code": 25258, "stop_name": "Maple / 36th", "stop_desc": 0.0, "stop_lat": 34.014737, "stop_lon": -118.270877, "stop_url": 0.0, "location_type": 0.0, "parent_station": 0.0, "tpis_name": 0.0, "id": "25258"}, {"stop_id": "11647", "stop_code": 11647, "stop_name": "Maple / Jefferson", "stop_desc": 0.0, "stop_lat": 34.017043, "stop_lon": -118.26941, "stop_url": 0.0, "location_type": 0.0, "parent_station": 0.0, "tpis_name": 0.0, "id": "11647"}, {"stop_id": "11643", "stop_code": 11643, "stop_name": "Maple / 30th", "stop_desc": 0.0, "stop_lat": 34.020169, "stop_lon": -118.267413, "stop_url": 0.0, "location_type": 0.0, "parent_station": 0.0, "tpis_name": 0.0, "id": "11643"}, {"stop_id": "11646", "stop_code": 11646, "stop_name": "Maple / Adams", "stop_desc": 0.0, "stop_lat": 34.023265, "stop_lon": -118.26544, "stop_url": 0.0, "location_type": 0.0, "parent_station": 0.0, "tpis_name": 0.0, "id": "11646"}, {"stop_id": "4800006", "stop_code": 4800006, "stop_name": "23rd / Maple", "stop_desc": 0.0, "stop_lat": 34.026019, "stop_lon": -118.264066, "stop_url": 0.0, "location_type": 0.0, "parent_station": 0.0, "tpis_name": 0.0, "id": "4800006"}, {"stop_id": "4800001", "stop_code": 4800001, "stop_name": "23rd / Main", "stop_desc": 0.0, "stop_lat": 34.027354, "stop_lon": -118.266898, "stop_url": 0.0, "location_type": 0.0, "parent_station": 0.0, "tpis_name": 0.0, "id": "4800001"}, {"stop_id": "4800002", "stop_code": 4800002, "stop_name": "Main / Washington", "stop_desc": 0.0, "stop_lat": 34.030829, "stop_lon": -118.264612, "stop_url": 0.0, "location_type": 0.0, "parent_station": 0.0, "tpis_name": 0.0, "id": "4800002"}, {"stop_id": "14555", "stop_code": 14555, "stop_name": "Palm & Seville Terminal", "stop_desc": 0.0, "stop_lat": 33.963456, "stop_lon": -118.222972, "stop_url": 0.0, "location_type": 0.0, "parent_station": 0.0, "tpis_name": 0.0, "id": "14555"}, {"stop_id": "6178", "stop_code": 6178, "stop_name": "Seville / Santa Ana", "stop_desc": 0.0, "stop_lat": 33.964598, "stop_lon": -118.222342, "stop_url": 0.0, "location_type": 0.0, "parent_station": 0.0, "tpis_name": 0.0, "id": "6178"}, {"stop_id": "6172", "stop_code": 6172, "stop_name": "Seville / Broadway", "stop_desc": 0.0, "stop_lat": 33.966255, "stop_lon": -118.222307, "stop_url": 0.0, "location_type": 0.0, "parent_station": 0.0, "tpis_name": 0.0, "id": "6172"}, {"stop_id": "6173", "stop_code": 6173, "stop_name": "Seville / Grand", "stop_desc": 0.0, "stop_lat": 33.968719, "stop_lon": -118.222314, "stop_url": 0.0, "location_type": 0.0, "parent_station": 0.0, "tpis_name": 0.0, "id": "6173"}, {"stop_id": "6175", "stop_code": 6175, "stop_name": "Seville / Live Oak", "stop_desc": 0.0, "stop_lat": 33.971242, "stop_lon": -118.222324, "stop_url": 0.0, "location_type": 0.0, "parent_station": 0.0, "tpis_name": 0.0, "id": "6175"}, {"stop_id": "20500011", "stop_code": 20500011, "stop_name": "Florence / Seville", "stop_desc": 0.0, "stop_lat": 33.974194, "stop_lon": -118.223466, "stop_url": 0.0, "location_type": 0.0, "parent_station": 0.0, "tpis_name": 0.0, "id": "20500011"}, {"stop_id": "9959", "stop_code": 9959, "stop_name": "Florence / Pacific", "stop_desc": 0.0, "stop_lat": 33.974441, "stop_lon": -118.226204, "stop_url": 0.0, "location_type": 0.0, "parent_station": 0.0, "tpis_name": 0.0, "id": "9959"}, {"stop_id": "1417", "stop_code": 1417, "stop_name": "Florence / Malabar", "stop_desc": 0.0, "stop_lat": 33.974582, "stop_lon": -118.227534, "stop_url": 0.0, "location_type": 0.0, "parent_station": 0.0, "tpis_name": 0.0, "id": "1417"}, {"stop_id": "9964", "stop_code": 9964, "stop_name": "Florence / Santa Fe", "stop_desc": 0.0, "stop_lat": 33.974867, "stop_lon": -118.230747, "stop_url": 0.0, "location_type": 0.0, "parent_station": 0.0, "tpis_name": 0.0, "id": "9964"}, {"stop_id": "9960", "stop_code": 9960, "stop_name": "Florence / Alameda", "stop_desc": 0.0, "stop_lat": 33.97486, "stop_lon": -118.234105, "stop_url": 0.0, "location_type": 0.0, "parent_station": 0.0, "tpis_name": 0.0, "id": "9960"}, {"stop_id": "9969", "stop_code": 9969, "stop_name": "Florence / Wilson", "stop_desc": 0.0, "stop_lat": 33.974857, "stop_lon": -118.237485, "stop_url": 0.0, "location_type": 0.0, "parent_station": 0.0, "tpis_name": 0.0, "id": "9969"}, {"stop_id": "11046", "stop_code": 11046, "stop_name": "Florence / Holmes", "stop_desc": 0.0, "stop_lat": 33.974861, "stop_lon": -118.240896, "stop_url": 0.0, "location_type": 0.0, "parent_station": 0.0, "tpis_name": 0.0, "id": "11046"}, {"stop_id": "9942", "stop_code": 9942, "stop_name": "Florence Station", "stop_desc": 0.0, "stop_lat": 33.974871, "stop_lon": -118.242611, "stop_url": 0.0, "location_type": 0.0, "parent_station": 0.0, "tpis_name": 0.0, "id": "9942"}, {"stop_id": "9951", "stop_code": 9951, "stop_name": "Florence / Miramonte", "stop_desc": 0.0, "stop_lat": 33.97488, "stop_lon": -118.245061, "stop_url": 0.0, "location_type": 0.0, "parent_station": 0.0, "tpis_name": 0.0, "id": "9951"}, {"stop_id": "9940", "stop_code": 9940, "stop_name": "Florence / Compton", "stop_desc": 0.0, "stop_lat": 33.974878, "stop_lon": -118.247426, "stop_url": 0.0, "location_type": 0.0, "parent_station": 0.0, "tpis_name": 0.0, "id": "9940"}, {"stop_id": "9945", "stop_code": 9945, "stop_name": "Florence / Hooper", "stop_desc": 0.0, "stop_lat": 33.974888, "stop_lon": -118.251816, "stop_url": 0.0, "location_type": 0.0, "parent_station": 0.0, "tpis_name": 0.0, "id": "9945"}, {"stop_id": "4881", "stop_code": 4881, "stop_name": "Central / Florence", "stop_desc": 0.0, "stop_lat": 33.975049, "stop_lon": -118.256253, "stop_url": 0.0, "location_type": 0.0, "parent_station": 0.0, "tpis_name": 0.0, "id": "4881"}, {"stop_id": "4863", "stop_code": 4863, "stop_name": "Central / 68th", "stop_desc": 0.0, "stop_lat": 33.978275, "stop_lon": -118.256269, "stop_url": 0.0, "location_type": 0.0, "parent_station": 0.0, "tpis_name": 0.0, "id": "4863"}, {"stop_id": "4882", "stop_code": 4882, "stop_name": "Central / Gage", "stop_desc": 0.0, "stop_lat": 33.981861, "stop_lon": -118.256284, "stop_url": 0.0, "location_type": 0.0, "parent_station": 0.0, "tpis_name": 0.0, "id": "4882"}, {"stop_id": "794", "stop_code": 794, "stop_name": "Hooper / Gage", "stop_desc": 0.0, "stop_lat": 33.982321, "stop_lon": -118.251931, "stop_url": 0.0, "location_type": 0.0, "parent_station": 0.0, "tpis_name": 0.0, "id": "794"}, {"stop_id": "821", "stop_code": 821, "stop_name": "Hooper / 60th", "stop_desc": 0.0, "stop_lat": 33.985093, "stop_lon": -118.251966, "stop_url": 0.0, "location_type": 0.0, "parent_station": 0.0, "tpis_name": 0.0, "id": "821"}, {"stop_id": "829", "stop_code": 829, "stop_name": "Hooper / Slauson", "stop_desc": 0.0, "stop_lat": 33.989127, "stop_lon": -118.251978, "stop_url": 0.0, "location_type": 0.0, "parent_station": 0.0, "tpis_name": 0.0, "id": "829"}, {"stop_id": "841", "stop_code": 841, "stop_name": "Hooper / 55th", "stop_desc": 0.0, "stop_lat": 33.992878, "stop_lon": -118.251973, "stop_url": 0.0, "location_type": 0.0, "parent_station": 0.0, "tpis_name": 0.0, "id": "841"}, {"stop_id": "849", "stop_code": 849, "stop_name": "Hooper / 51st", "stop_desc": 0.0, "stop_lat": 33.996516, "stop_lon": -118.251977, "stop_url": 0.0, "location_type": 0.0, "parent_station": 0.0, "tpis_name": 0.0, "id": "849"}, {"stop_id": "853", "stop_code": 853, "stop_name": "Hooper / 48th", "stop_desc": 0.0, "stop_lat": 34.000085, "stop_lon": -118.251998, "stop_url": 0.0, "location_type": 0.0, "parent_station": 0.0, "tpis_name": 0.0, "id": "853"}, {"stop_id": "855", "stop_code": 855, "stop_name": "Hooper / Vernon", "stop_desc": 0.0, "stop_lat": 34.003765, "stop_lon": -118.251992, "stop_url": 0.0, "location_type": 0.0, "parent_station": 0.0, "tpis_name": 0.0, "id": "855"}, {"stop_id": "858", "stop_code": 858, "stop_name": "Hooper / 42nd", "stop_desc": 0.0, "stop_lat": 34.006513, "stop_lon": -118.251994, "stop_url": 0.0, "location_type": 0.0, "parent_station": 0.0, "tpis_name": 0.0, "id": "858"}, {"stop_id": "9723", "stop_code": 9723, "stop_name": "41st / Hooper", "stop_desc": 0.0, "stop_lat": 34.009367, "stop_lon": -118.252441, "stop_url": 0.0, "location_type": 0.0, "parent_station": 0.0, "tpis_name": 0.0, "id": "9723"}, {"stop_id": "9725", "stop_code": 9725, "stop_name": "41st / Central", "stop_desc": 0.0, "stop_lat": 34.009337, "stop_lon": -118.256328, "stop_url": 0.0, "location_type": 0.0, "parent_station": 0.0, "tpis_name": 0.0, "id": "9725"}, {"stop_id": "11189", "stop_code": 11189, "stop_name": "Jefferson / Central", "stop_desc": 0.0, "stop_lat": 34.011842, "stop_lon": -118.256732, "stop_url": 0.0, "location_type": 0.0, "parent_station": 0.0, "tpis_name": 0.0, "id": "11189"}, {"stop_id": "104700", "stop_code": 104700, "stop_name": "Jefferson / Griffith", "stop_desc": 0.0, "stop_lat": 34.013789, "stop_lon": -118.261239, "stop_url": 0.0, "location_type": 0.0, "parent_station": 0.0, "tpis_name": 0.0, "id": "104700"}, {"stop_id": "78921", "stop_code": 78921, "stop_name": "Jefferson / San Pedro", "stop_desc": 0.0, "stop_lat": 34.015429, "stop_lon": -118.265065, "stop_url": 0.0, "location_type": 0.0, "parent_station": 0.0, "tpis_name": 0.0, "id": "78921"}, {"stop_id": "10056", "stop_code": 10056, "stop_name": "Jefferson / Trinity", "stop_desc": 0.0, "stop_lat": 34.016252, "stop_lon": -118.267021, "stop_url": 0.0, "location_type": 0.0, "parent_station": 0.0, "tpis_name": 0.0, "id": "10056"}, {"stop_id": "11190", "stop_code": 11190, "stop_name": "Jefferson / Maple", "stop_desc": 0.0, "stop_lat": 34.017245, "stop_lon": -118.269189, "stop_url": 0.0, "location_type": 0.0, "parent_station": 0.0, "tpis_name": 0.0, "id": "11190"}, {"stop_id": "10054", "stop_code": 10054, "stop_name": "Jefferson / Main", "stop_desc": 0.0, "stop_lat": 34.018702, "stop_lon": -118.272408, "stop_url": 0.0, "location_type": 0.0, "parent_station": 0.0, "tpis_name": 0.0, "id": "10054"}, {"stop_id": "16493", "stop_code": 16493, "stop_name": "Jefferson / Broadway", "stop_desc": 0.0, "stop_lat": 34.01921, "stop_lon": -118.273545, "stop_url": 0.0, "location_type": 0.0, "parent_station": 0.0, "tpis_name": 0.0, "id": "16493"}, {"stop_id": "13570", "stop_code": 13570, "stop_name": "Jefferson / Grand", "stop_desc": 0.0, "stop_lat": 34.020515, "stop_lon": -118.276456, "stop_url": 0.0, "location_type": 0.0, "parent_station": 0.0, "tpis_name": 0.0, "id": "13570"}, {"stop_id": "16057", "stop_code": 16057, "stop_name": "Jefferson / Hope", "stop_desc": 0.0, "stop_lat": 34.020963, "stop_lon": -118.277455, "stop_url": 0.0, "location_type": 0.0, "parent_station": 0.0, "tpis_name": 0.0, "id": "16057"}, {"stop_id": "1490", "stop_code": 1490, "stop_name": "Jefferson / Flower", "stop_desc": 0.0, "stop_lat": 34.021417, "stop_lon": -118.278482, "stop_url": 0.0, "location_type": 0.0, "parent_station": 0.0, "tpis_name": 0.0, "id": "1490"}, {"stop_id": "13470", "stop_code": 13470, "stop_name": "Figueroa / Jefferson", "stop_desc": 0.0, "stop_lat": 34.021742, "stop_lon": -118.280262, "stop_url": 0.0, "location_type": 0.0, "parent_station": 0.0, "tpis_name": 0.0, "id": "13470"}, {"stop_id": "10429", "stop_code": 10429, "stop_name": "Figueroa / USC McCarthy", "stop_desc": 0.0, "stop_lat": 34.020372, "stop_lon": -118.281135, "stop_url": 0.0, "location_type": 0.0, "parent_station": 0.0, "tpis_name": 0.0, "id": "10429"}, {"stop_id": "13422", "stop_code": 13422, "stop_name": "Figueroa / Exposition", "stop_desc": 0.0, "stop_lat": 34.019194, "stop_lon": -118.28192, "stop_url": 0.0, "location_type": 0.0, "parent_station": 0.0, "tpis_name": 0.0, "id": "13422"}, {"stop_id": "10378", "stop_code": 10378, "stop_name": "Exposition / Trousdale", "stop_desc": 0.0, "stop_lat": 34.018459, "stop_lon": -118.286944, "stop_url": 0.0, "location_type": 0.0, "parent_station": 0.0, "tpis_name": 0.0, "id": "10378"}, {"stop_id": "10390", "stop_code": 10390, "stop_name": "Exposition / Watt", "stop_desc": 0.0, "stop_lat": 34.01853, "stop_lon": -118.288614, "stop_url": 0.0, "location_type": 0.0, "parent_station": 0.0, "tpis_name": 0.0, "id": "10390"}, {"stop_id": "1838", "stop_code": 1838, "stop_name": "Exposition / Vermont", "stop_desc": 0.0, "stop_lat": 34.018475, "stop_lon": -118.291864, "stop_url": 0.0, "location_type": 0.0, "parent_station": 0.0, "tpis_name": 0.0, "id": "1838"}, {"stop_id": "10381", "stop_code": 10381, "stop_name": "Exposition / Catalina", "stop_desc": 0.0, "stop_lat": 34.018488, "stop_lon": -118.294256, "stop_url": 0.0, "location_type": 0.0, "parent_station": 0.0, "tpis_name": 0.0, "id": "10381"}, {"stop_id": "10380", "stop_code": 10380, "stop_name": "Exposition / Raymond", "stop_desc": 0.0, "stop_lat": 34.018497, "stop_lon": -118.297533, "stop_url": 0.0, "location_type": 0.0, "parent_station": 0.0, "tpis_name": 0.0, "id": "10380"}, {"stop_id": "10384", "stop_code": 10384, "stop_name": "Exposition / Normandie", "stop_desc": 0.0, "stop_lat": 34.018498, "stop_lon": -118.30051, "stop_url": 0.0, "location_type": 0.0, "parent_station": 0.0, "tpis_name": 0.0, "id": "10384"}, {"stop_id": "10379", "stop_code": 10379, "stop_name": "Exposition / Halldale", "stop_desc": 0.0, "stop_lat": 34.018506, "stop_lon": -118.302721, "stop_url": 0.0, "location_type": 0.0, "parent_station": 0.0, "tpis_name": 0.0, "id": "10379"}, {"stop_id": "10383", "stop_code": 10383, "stop_name": "Exposition / Harvard", "stop_desc": 0.0, "stop_lat": 34.018521, "stop_lon": -118.306503, "stop_url": 0.0, "location_type": 0.0, "parent_station": 0.0, "tpis_name": 0.0, "id": "10383"}, {"stop_id": "5708", "stop_code": 5708, "stop_name": "Western / Exposition", "stop_desc": 0.0, "stop_lat": 34.017987, "stop_lon": -118.309045, "stop_url": 0.0, "location_type": 0.0, "parent_station": 0.0, "tpis_name": 0.0, "id": "5708"}, {"stop_id": "14111", "stop_code": 14111, "stop_name": "Western / 38th", "stop_desc": 0.0, "stop_lat": 34.016586, "stop_lon": -118.30905, "stop_url": 0.0, "location_type": 0.0, "parent_station": 0.0, "tpis_name": 0.0, "id": "14111"}, {"stop_id": "14112", "stop_code": 14112, "stop_name": "Western / 39th", "stop_desc": 0.0, "stop_lat": 34.014775, "stop_lon": -118.309053, "stop_url": 0.0, "location_type": 0.0, "parent_station": 0.0, "tpis_name": 0.0, "id": "14112"}, {"stop_id": "11248", "stop_code": 11248, "stop_name": "Martin Luther King Jr / Western", "stop_desc": 0.0, "stop_lat": 34.011004, "stop_lon": -118.309415, "stop_url": 0.0, "location_type": 0.0, "parent_station": 0.0, "tpis_name": 0.0, "id": "11248"}, {"stop_id": "11236", "stop_code": 11236, "stop_name": "Martin Luther King Jr / Gramercy", "stop_desc": 0.0, "stop_lat": 34.010972, "stop_lon": -118.314134, "stop_url": 0.0, "location_type": 0.0, "parent_station": 0.0, "tpis_name": 0.0, "id": "11236"}, {"stop_id": "2731", "stop_code": 2731, "stop_name": "Martin Luther King Jr / Arlington", "stop_desc": 0.0, "stop_lat": 34.01094, "stop_lon": -118.31807, "stop_url": 0.0, "location_type": 0.0, "parent_station": 0.0, "tpis_name": 0.0, "id": "2731"}, {"stop_id": "11244", "stop_code": 11244, "stop_name": "Martin Luther King Jr / Roxton", "stop_desc": 0.0, "stop_lat": 34.010913, "stop_lon": -118.321178, "stop_url": 0.0, "location_type": 0.0, "parent_station": 0.0, "tpis_name": 0.0, "id": "11244"}, {"stop_id": "11446", "stop_code": 11446, "stop_name": "Leimert / Sutro", "stop_desc": 0.0, "stop_lat": 34.010561, "stop_lon": -118.323355, "stop_url": 0.0, "location_type": 0.0, "parent_station": 0.0, "tpis_name": 0.0, "id": "11446"}, {"stop_id": "11445", "stop_code": 11445, "stop_name": "Leimert / Stocker", "stop_desc": 0.0, "stop_lat": 34.008024, "stop_lon": -118.326601, "stop_url": 0.0, "location_type": 0.0, "parent_station": 0.0, "tpis_name": 0.0, "id": "11445"}, {"stop_id": "15667", "stop_code": 15667, "stop_name": "Leimert / 43rd", "stop_desc": 0.0, "stop_lat": 34.005554, "stop_lon": -118.329621, "stop_url": 0.0, "location_type": 0.0, "parent_station": 0.0, "tpis_name": 0.0, "id": "15667"}, {"stop_id": "15666", "stop_code": 15666, "stop_name": "43rd / Degnan", "stop_desc": 0.0, "stop_lat": 34.006066, "stop_lon": -118.331286, "stop_url": 0.0, "location_type": 0.0, "parent_station": 0.0, "tpis_name": 0.0, "id": "15666"}, {"stop_id": "890", "stop_code": 890, "stop_name": "43rd / Crenshaw", "stop_desc": 0.0, "stop_lat": 34.005556, "stop_lon": -118.3336, "stop_url": 0.0, "location_type": 0.0, "parent_station": 0.0, "tpis_name": 0.0, "id": "890"}, {"stop_id": "14719", "stop_code": 14719, "stop_name": "Stocker / Crenshaw", "stop_desc": 0.0, "stop_lat": 34.008494, "stop_lon": -118.33539, "stop_url": 0.0, "location_type": 0.0, "parent_station": 0.0, "tpis_name": 0.0, "id": "14719"}, {"stop_id": "14718", "stop_code": 14718, "stop_name": "Stocker / Santa Rosalia", "stop_desc": 0.0, "stop_lat": 34.006993, "stop_lon": -118.337634, "stop_url": 0.0, "location_type": 0.0, "parent_station": 0.0, "tpis_name": 0.0, "id": "14718"}, {"stop_id": "14715", "stop_code": 14715, "stop_name": "Stocker / Don Felipe", "stop_desc": 0.0, "stop_lat": 34.006066, "stop_lon": -118.339152, "stop_url": 0.0, "location_type": 0.0, "parent_station": 0.0, "tpis_name": 0.0, "id": "14715"}, {"stop_id": "14720", "stop_code": 14720, "stop_name": "Stocker / Presidio", "stop_desc": 0.0, "stop_lat": 34.004994, "stop_lon": -118.341134, "stop_url": 0.0, "location_type": 0.0, "parent_station": 0.0, "tpis_name": 0.0, "id": "14720"}, {"stop_id": "14721", "stop_code": 14721, "stop_name": "Stocker / Valley Ridge", "stop_desc": 0.0, "stop_lat": 34.004763, "stop_lon": -118.347141, "stop_url": 0.0, "location_type": 0.0, "parent_station": 0.0, "tpis_name": 0.0, "id": "14721"}, {"stop_id": "14717", "stop_code": 14717, "stop_name": "Stocker / Don Miguel", "stop_desc": 0.0, "stop_lat": 34.005008, "stop_lon": -118.35056, "stop_url": 0.0, "location_type": 0.0, "parent_station": 0.0, "tpis_name": 0.0, "id": "14717"}, {"stop_id": "14716", "stop_code": 14716, "stop_name": "Stocker / Don Lorenzo", "stop_desc": 0.0, "stop_lat": 34.001384, "stop_lon": -118.355253, "stop_url": 0.0, "location_type": 0.0, "parent_station": 0.0, "tpis_name": 0.0, "id": "14716"}, {"stop_id": "12643", "stop_code": 12643, "stop_name": "Overhill / Stocker", "stop_desc": 0.0, "stop_lat": 33.996562, "stop_lon": -118.357717, "stop_url": 0.0, "location_type": 0.0, "parent_station": 0.0, "tpis_name": 0.0, "id": "12643"}, {"stop_id": "4162", "stop_code": 4162, "stop_name": "Overhill / Northridge", "stop_desc": 0.0, "stop_lat": 33.994055, "stop_lon": -118.355288, "stop_url": 0.0, "location_type": 0.0, "parent_station": 0.0, "tpis_name": 0.0, "id": "4162"}, {"stop_id": "16267", "stop_code": 16267, "stop_name": "Slauson / Overhill", "stop_desc": 0.0, "stop_lat": 33.989032, "stop_lon": -118.354412, "stop_url": 0.0, "location_type": 0.0, "parent_station": 0.0, "tpis_name": 0.0, "id": "16267"}, {"stop_id": "16276", "stop_code": 16276, "stop_name": "Slauson / La Brea", "stop_desc": 0.0, "stop_lat": 33.988702, "stop_lon": -118.358313, "stop_url": 0.0, "location_type": 0.0, "parent_station": 0.0, "tpis_name": 0.0, "id": "16276"}, {"stop_id": "16271", "stop_code": 16271, "stop_name": "Slauson / Fairfax", "stop_desc": 0.0, "stop_lat": 33.987758, "stop_lon": -118.362479, "stop_url": 0.0, "location_type": 0.0, "parent_station": 0.0, "tpis_name": 0.0, "id": "16271"}, {"stop_id": "16266", "stop_code": 16266, "stop_name": "La Tijera / Slauson", "stop_desc": 0.0, "stop_lat": 33.987215, "stop_lon": -118.364832, "stop_url": 0.0, "location_type": 0.0, "parent_station": 0.0, "tpis_name": 0.0, "id": "16266"}, {"stop_id": "11278", "stop_code": 11278, "stop_name": "La Tijera / 59th", "stop_desc": 0.0, "stop_lat": 33.985736, "stop_lon": -118.364901, "stop_url": 0.0, "location_type": 0.0, "parent_station": 0.0, "tpis_name": 0.0, "id": "11278"}, {"stop_id": "11279", "stop_code": 11279, "stop_name": "La Tijera / 62nd", "stop_desc": 0.0, "stop_lat": 33.983761, "stop_lon": -118.366443, "stop_url": 0.0, "location_type": 0.0, "parent_station": 0.0, "tpis_name": 0.0, "id": "11279"}, {"stop_id": "11280", "stop_code": 11280, "stop_name": "La Tijera / 64th", "stop_desc": 0.0, "stop_lat": 33.981876, "stop_lon": -118.367286, "stop_url": 0.0, "location_type": 0.0, "parent_station": 0.0, "tpis_name": 0.0, "id": "11280"}, {"stop_id": "13675", "stop_code": 13675, "stop_name": "La Tijera / Fairview", "stop_desc": 0.0, "stop_lat": 33.980042, "stop_lon": -118.369537, "stop_url": 0.0, "location_type": 0.0, "parent_station": 0.0, "tpis_name": 0.0, "id": "13675"}, {"stop_id": "11276", "stop_code": 11276, "stop_name": "La Tijera / Centinela", "stop_desc": 0.0, "stop_lat": 33.976978, "stop_lon": -118.372446, "stop_url": 0.0, "location_type": 0.0, "parent_station": 0.0, "tpis_name": 0.0, "id": "11276"}, {"stop_id": "11275", "stop_code": 11275, "stop_name": "La Tijera / Alvern", "stop_desc": 0.0, "stop_lat": 33.975249, "stop_lon": -118.374345, "stop_url": 0.0, "location_type": 0.0, "parent_station": 0.0, "tpis_name": 0.0, "id": "11275"}, {"stop_id": "11277", "stop_code": 11277, "stop_name": "La Tijera / Thornburn", "stop_desc": 0.0, "stop_lat": 33.973294, "stop_lon": -118.376539, "stop_url": 0.0, "location_type": 0.0, "parent_station": 0.0, "tpis_name": 0.0, "id": "11277"}, {"stop_id": "11281", "stop_code": 11281, "stop_name": "La Tijera / 74th", "stop_desc": 0.0, "stop_lat": 33.970498, "stop_lon": -118.379689, "stop_url": 0.0, "location_type": 0.0, "parent_station": 0.0, "tpis_name": 0.0, "id": "11281"}, {"stop_id": "11273", "stop_code": 11273, "stop_name": "La Tijera / 78th", "stop_desc": 0.0, "stop_lat": 33.96873, "stop_lon": -118.38168, "stop_url": 0.0, "location_type": 0.0, "parent_station": 0.0, "tpis_name": 0.0, "id": "11273"}, {"stop_id": "11274", "stop_code": 11274, "stop_name": "La Tijera / Airport", "stop_desc": 0.0, "stop_lat": 33.965241, "stop_lon": -118.385595, "stop_url": 0.0, "location_type": 0.0, "parent_station": 0.0, "tpis_name": 0.0, "id": "11274"}, {"stop_id": "11282", "stop_code": 11282, "stop_name": "La Tijera / 83rd", "stop_desc": 0.0, "stop_lat": 33.963041, "stop_lon": -118.388068, "stop_url": 0.0, "location_type": 0.0, "parent_station": 0.0, "tpis_name": 0.0, "id": "11282"}, {"stop_id": "16091", "stop_code": 16091, "stop_name": "Manchester / La Tijera", "stop_desc": 0.0, "stop_lat": 33.960001, "stop_lon": -118.391744, "stop_url": 0.0, "location_type": 0.0, "parent_station": 0.0, "tpis_name": 0.0, "id": "16091"}, {"stop_id": "16111", "stop_code": 16111, "stop_name": "Manchester / Truxton", "stop_desc": 0.0, "stop_lat": 33.959998, "stop_lon": -118.39335, "stop_url": 0.0, "location_type": 0.0, "parent_station": 0.0, "tpis_name": 0.0, "id": "16111"}, {"stop_id": "16103", "stop_code": 16103, "stop_name": "Sepulveda / Manchester", "stop_desc": 0.0, "stop_lat": 33.95959, "stop_lon": -118.396362, "stop_url": 0.0, "location_type": 0.0, "parent_station": 0.0, "tpis_name": 0.0, "id": "16103"}, {"stop_id": "13933", "stop_code": 13933, "stop_name": "Sepulveda / La Tijera", "stop_desc": 0.0, "stop_lat": 33.956971, "stop_lon": -118.396373, "stop_url": 0.0, "location_type": 0.0, "parent_station": 0.0, "tpis_name": 0.0, "id": "13933"}, {"stop_id": "5552", "stop_code": 5552, "stop_name": "Westchester / Sepulveda", "stop_desc": 0.0, "stop_lat": 33.954519, "stop_lon": -118.39588, "stop_url": 0.0, "location_type": 0.0, "parent_station": 0.0, "tpis_name": 0.0, "id": "5552"}, {"stop_id": "30006", "stop_code": 30006, "stop_name": "LAX City Bus Center", "stop_desc": 0.0, "stop_lat": 33.950247, "stop_lon": -118.392545, "stop_url": 0.0, "location_type": 0.0, "parent_station": 0.0, "tpis_name": 0.0, "id": "30006"}, {"stop_id": "7437", "stop_code": 7437, "stop_name": "96th / Sepulveda", "stop_desc": 0.0, "stop_lat": 33.948834, "stop_lon": -118.395853, "stop_url": 0.0, "location_type": 0.0, "parent_station": 0.0, "tpis_name": 0.0, "id": "7437"}, {"stop_id": "6134", "stop_code": 6134, "stop_name": "Sepulveda / Westchester", "stop_desc": 0.0, "stop_lat": 33.954411, "stop_lon": -118.396058, "stop_url": 0.0, "location_type": 0.0, "parent_station": 0.0, "tpis_name": 0.0, "id": "6134"}, {"stop_id": "36554", "stop_code": 36554, "stop_name": "Sepulveda / Manchester", "stop_desc": 0.0, "stop_lat": 33.957451, "stop_lon": -118.396046, "stop_url": 0.0, "location_type": 0.0, "parent_station": 0.0, "tpis_name": 0.0, "id": "36554"}, {"stop_id": "36555", "stop_code": 36555, "stop_name": "Sepulveda / Manchester", "stop_desc": 0.0, "stop_lat": 33.959659, "stop_lon": -118.396059, "stop_url": 0.0, "location_type": 0.0, "parent_station": 0.0, "tpis_name": 0.0, "id": "36555"}, {"stop_id": "7822", "stop_code": 7822, "stop_name": "Manchester / Truxton", "stop_desc": 0.0, "stop_lat": 33.959746, "stop_lon": -118.39325, "stop_url": 0.0, "location_type": 0.0, "parent_station": 0.0, "tpis_name": 0.0, "id": "7822"}, {"stop_id": "2788", "stop_code": 2788, "stop_name": "La Tijera / Manchester", "stop_desc": 0.0, "stop_lat": 33.960088, "stop_lon": -118.390967, "stop_url": 0.0, "location_type": 0.0, "parent_station": 0.0, "tpis_name": 0.0, "id": "2788"}, {"stop_id": "2789", "stop_code": 2789, "stop_name": "La Tijera / Wiley Post", "stop_desc": 0.0, "stop_lat": 33.962667, "stop_lon": -118.38807, "stop_url": 0.0, "location_type": 0.0, "parent_station": 0.0, "tpis_name": 0.0, "id": "2789"}, {"stop_id": "2780", "stop_code": 2780, "stop_name": "La Tijera / Airport", "stop_desc": 0.0, "stop_lat": 33.964917, "stop_lon": -118.385548, "stop_url": 0.0, "location_type": 0.0, "parent_station": 0.0, "tpis_name": 0.0, "id": "2780"}, {"stop_id": "2782", "stop_code": 2782, "stop_name": "La Tijera / Belford", "stop_desc": 0.0, "stop_lat": 33.966004, "stop_lon": -118.384329, "stop_url": 0.0, "location_type": 0.0, "parent_station": 0.0, "tpis_name": 0.0, "id": "2782"}, {"stop_id": "142072", "stop_code": 142072, "stop_name": "La Tijera / 79th", "stop_desc": 0.0, "stop_lat": 33.968304, "stop_lon": -118.381741, "stop_url": 0.0, "location_type": 0.0, "parent_station": 0.0, "tpis_name": 0.0, "id": "142072"}, {"stop_id": "2787", "stop_code": 2787, "stop_name": "La Tijera / 74th", "stop_desc": 0.0, "stop_lat": 33.970628, "stop_lon": -118.379133, "stop_url": 0.0, "location_type": 0.0, "parent_station": 0.0, "tpis_name": 0.0, "id": "2787"}, {"stop_id": "2784", "stop_code": 2784, "stop_name": "La Tijera / Thornburn", "stop_desc": 0.0, "stop_lat": 33.97284, "stop_lon": -118.376636, "stop_url": 0.0, "location_type": 0.0, "parent_station": 0.0, "tpis_name": 0.0, "id": "2784"}, {"stop_id": "2781", "stop_code": 2781, "stop_name": "La Tijera / Alvern", "stop_desc": 0.0, "stop_lat": 33.974878, "stop_lon": -118.374346, "stop_url": 0.0, "location_type": 0.0, "parent_station": 0.0, "tpis_name": 0.0, "id": "2781"}, {"stop_id": "2783", "stop_code": 2783, "stop_name": "La Tijera / Centinela", "stop_desc": 0.0, "stop_lat": 33.97771, "stop_lon": -118.371133, "stop_url": 0.0, "location_type": 0.0, "parent_station": 0.0, "tpis_name": 0.0, "id": "2783"}, {"stop_id": "5228", "stop_code": 5228, "stop_name": "La Tijera / Fairview", "stop_desc": 0.0, "stop_lat": 33.980024, "stop_lon": -118.369283, "stop_url": 0.0, "location_type": 0.0, "parent_station": 0.0, "tpis_name": 0.0, "id": "5228"}, {"stop_id": "142073", "stop_code": 142073, "stop_name": "La Tijera / 64th", "stop_desc": 0.0, "stop_lat": 33.981505, "stop_lon": -118.36736, "stop_url": 0.0, "location_type": 0.0, "parent_station": 0.0, "tpis_name": 0.0, "id": "142073"}, {"stop_id": "2786", "stop_code": 2786, "stop_name": "La Tijera / 62nd", "stop_desc": 0.0, "stop_lat": 33.984054, "stop_lon": -118.365926, "stop_url": 0.0, "location_type": 0.0, "parent_station": 0.0, "tpis_name": 0.0, "id": "2786"}, {"stop_id": "2785", "stop_code": 2785, "stop_name": "La Tijera / 59th", "stop_desc": 0.0, "stop_lat": 33.985784, "stop_lon": -118.364657, "stop_url": 0.0, "location_type": 0.0, "parent_station": 0.0, "tpis_name": 0.0, "id": "2785"}, {"stop_id": "11283", "stop_code": 11283, "stop_name": "Slauson / La Tijera", "stop_desc": 0.0, "stop_lat": 33.987452, "stop_lon": -118.364378, "stop_url": 0.0, "location_type": 0.0, "parent_station": 0.0, "tpis_name": 0.0, "id": "11283"}, {"stop_id": "7970", "stop_code": 7970, "stop_name": "Slauson / Fairfax", "stop_desc": 0.0, "stop_lat": 33.987463, "stop_lon": -118.362801, "stop_url": 0.0, "location_type": 0.0, "parent_station": 0.0, "tpis_name": 0.0, "id": "7970"}, {"stop_id": "13655", "stop_code": 13655, "stop_name": "Slauson / La Brea", "stop_desc": 0.0, "stop_lat": 33.988455, "stop_lon": -118.35818, "stop_url": 0.0, "location_type": 0.0, "parent_station": 0.0, "tpis_name": 0.0, "id": "13655"}, {"stop_id": "4161", "stop_code": 4161, "stop_name": "Overhill / Slauson", "stop_desc": 0.0, "stop_lat": 33.989091, "stop_lon": -118.353928, "stop_url": 0.0, "location_type": 0.0, "parent_station": 0.0, "tpis_name": 0.0, "id": "4161"}, {"stop_id": "12642", "stop_code": 12642, "stop_name": "Overhill / Northridge", "stop_desc": 0.0, "stop_lat": 33.994524, "stop_lon": -118.355547, "stop_url": 0.0, "location_type": 0.0, "parent_station": 0.0, "tpis_name": 0.0, "id": "12642"}, {"stop_id": "4163", "stop_code": 4163, "stop_name": "Overhill / La Brea", "stop_desc": 0.0, "stop_lat": 33.996958, "stop_lon": -118.357633, "stop_url": 0.0, "location_type": 0.0, "parent_station": 0.0, "tpis_name": 0.0, "id": "4163"}, {"stop_id": "6343", "stop_code": 6343, "stop_name": "Stocker / Don Lorenzo", "stop_desc": 0.0, "stop_lat": 34.001264, "stop_lon": -118.354949, "stop_url": 0.0, "location_type": 0.0, "parent_station": 0.0, "tpis_name": 0.0, "id": "6343"}, {"stop_id": "6344", "stop_code": 6344, "stop_name": "Stocker / Don Miguel", "stop_desc": 0.0, "stop_lat": 34.004786, "stop_lon": -118.350394, "stop_url": 0.0, "location_type": 0.0, "parent_station": 0.0, "tpis_name": 0.0, "id": "6344"}, {"stop_id": "6350", "stop_code": 6350, "stop_name": "Stocker / Valley Ridge", "stop_desc": 0.0, "stop_lat": 34.004572, "stop_lon": -118.347526, "stop_url": 0.0, "location_type": 0.0, "parent_station": 0.0, "tpis_name": 0.0, "id": "6350"}, {"stop_id": "6349", "stop_code": 6349, "stop_name": "Stocker / Presidio", "stop_desc": 0.0, "stop_lat": 34.004811, "stop_lon": -118.340908, "stop_url": 0.0, "location_type": 0.0, "parent_station": 0.0, "tpis_name": 0.0, "id": "6349"}, {"stop_id": "6342", "stop_code": 6342, "stop_name": "Stocker / Don Felipe", "stop_desc": 0.0, "stop_lat": 34.005855, "stop_lon": -118.338969, "stop_url": 0.0, "location_type": 0.0, "parent_station": 0.0, "tpis_name": 0.0, "id": "6342"}, {"stop_id": "6345", "stop_code": 6345, "stop_name": "Stocker / Angeles Vista", "stop_desc": 0.0, "stop_lat": 34.006909, "stop_lon": -118.337337, "stop_url": 0.0, "location_type": 0.0, "parent_station": 0.0, "tpis_name": 0.0, "id": "6345"}, {"stop_id": "6348", "stop_code": 6348, "stop_name": "Stocker / Crenshaw", "stop_desc": 0.0, "stop_lat": 34.008233, "stop_lon": -118.335353, "stop_url": 0.0, "location_type": 0.0, "parent_station": 0.0, "tpis_name": 0.0, "id": "6348"}, {"stop_id": "891", "stop_code": 891, "stop_name": "43rd / Crenshaw", "stop_desc": 0.0, "stop_lat": 34.005441, "stop_lon": -118.3335, "stop_url": 0.0, "location_type": 0.0, "parent_station": 0.0, "tpis_name": 0.0, "id": "891"}, {"stop_id": "7307", "stop_code": 7307, "stop_name": "43rd / Degnan", "stop_desc": 0.0, "stop_lat": 34.00592, "stop_lon": -118.331203, "stop_url": 0.0, "location_type": 0.0, "parent_station": 0.0, "tpis_name": 0.0, "id": "7307"}, {"stop_id": "2957", "stop_code": 2957, "stop_name": "Leimert / Stocker", "stop_desc": 0.0, "stop_lat": 34.007978, "stop_lon": -118.326317, "stop_url": 0.0, "location_type": 0.0, "parent_station": 0.0, "tpis_name": 0.0, "id": "2957"}, {"stop_id": "2958", "stop_code": 2958, "stop_name": "Leimert / Sutro", "stop_desc": 0.0, "stop_lat": 34.010385, "stop_lon": -118.323242, "stop_url": 0.0, "location_type": 0.0, "parent_station": 0.0, "tpis_name": 0.0, "id": "2958"}, {"stop_id": "2729", "stop_code": 2729, "stop_name": "Martin Luther King Jr / 4th", "stop_desc": 0.0, "stop_lat": 34.010653, "stop_lon": -118.3216, "stop_url": 0.0, "location_type": 0.0, "parent_station": 0.0, "tpis_name": 0.0, "id": "2729"}, {"stop_id": "11224", "stop_code": 11224, "stop_name": "Martin Luther King Jr / Arlington", "stop_desc": 0.0, "stop_lat": 34.010686, "stop_lon": -118.318462, "stop_url": 0.0, "location_type": 0.0, "parent_station": 0.0, "tpis_name": 0.0, "id": "11224"}, {"stop_id": "2739", "stop_code": 2739, "stop_name": "Martin Luther King Jr / Gramercy", "stop_desc": 0.0, "stop_lat": 34.01072, "stop_lon": -118.314067, "stop_url": 0.0, "location_type": 0.0, "parent_station": 0.0, "tpis_name": 0.0, "id": "2739"}, {"stop_id": "65300050", "stop_code": 65300050, "stop_name": "Western / Martin Luther King Jr", "stop_desc": 0.0, "stop_lat": 34.011272, "stop_lon": -118.308753, "stop_url": 0.0, "location_type": 0.0, "parent_station": 0.0, "tpis_name": 0.0, "id": "65300050"}, {"stop_id": "5728", "stop_code": 5728, "stop_name": "Western / 39th", "stop_desc": 0.0, "stop_lat": 34.014473, "stop_lon": -118.308748, "stop_url": 0.0, "location_type": 0.0, "parent_station": 0.0, "tpis_name": 0.0, "id": "5728"}, {"stop_id": "5727", "stop_code": 5727, "stop_name": "Western / 38th", "stop_desc": 0.0, "stop_lat": 34.016812, "stop_lon": -118.30874, "stop_url": 0.0, "location_type": 0.0, "parent_station": 0.0, "tpis_name": 0.0, "id": "5727"}, {"stop_id": "1839", "stop_code": 1839, "stop_name": "Exposition / Western", "stop_desc": 0.0, "stop_lat": 34.018123, "stop_lon": -118.30857, "stop_url": 0.0, "location_type": 0.0, "parent_station": 0.0, "tpis_name": 0.0, "id": "1839"}, {"stop_id": "1836", "stop_code": 1836, "stop_name": "Exposition / Harvard", "stop_desc": 0.0, "stop_lat": 34.018085, "stop_lon": -118.306382, "stop_url": 0.0, "location_type": 0.0, "parent_station": 0.0, "tpis_name": 0.0, "id": "1836"}, {"stop_id": "1831", "stop_code": 1831, "stop_name": "Exposition / Denker", "stop_desc": 0.0, "stop_lat": 34.018081, "stop_lon": -118.304689, "stop_url": 0.0, "location_type": 0.0, "parent_station": 0.0, "tpis_name": 0.0, "id": "1831"}, {"stop_id": "1832", "stop_code": 1832, "stop_name": "Exposition / Halldale", "stop_desc": 0.0, "stop_lat": 34.018075, "stop_lon": -118.302657, "stop_url": 0.0, "location_type": 0.0, "parent_station": 0.0, "tpis_name": 0.0, "id": "1832"}, {"stop_id": "1837", "stop_code": 1837, "stop_name": "Exposition / Normandie", "stop_desc": 0.0, "stop_lat": 34.018065, "stop_lon": -118.299848, "stop_url": 0.0, "location_type": 0.0, "parent_station": 0.0, "tpis_name": 0.0, "id": "1837"}, {"stop_id": "1833", "stop_code": 1833, "stop_name": "Exposition / Raymond", "stop_desc": 0.0, "stop_lat": 34.018063, "stop_lon": -118.297532, "stop_url": 0.0, "location_type": 0.0, "parent_station": 0.0, "tpis_name": 0.0, "id": "1833"}, {"stop_id": "1834", "stop_code": 1834, "stop_name": "Exposition / Budlong", "stop_desc": 0.0, "stop_lat": 34.018058, "stop_lon": -118.296007, "stop_url": 0.0, "location_type": 0.0, "parent_station": 0.0, "tpis_name": 0.0, "id": "1834"}, {"stop_id": "1841", "stop_code": 1841, "stop_name": "Exposition / Vermont", "stop_desc": 0.0, "stop_lat": 34.018034, "stop_lon": -118.291212, "stop_url": 0.0, "location_type": 0.0, "parent_station": 0.0, "tpis_name": 0.0, "id": "1841"}, {"stop_id": "12002", "stop_code": 12002, "stop_name": "Exposition / Watt", "stop_desc": 0.0, "stop_lat": 34.018024, "stop_lon": -118.28846, "stop_url": 0.0, "location_type": 0.0, "parent_station": 0.0, "tpis_name": 0.0, "id": "12002"}, {"stop_id": "1830", "stop_code": 1830, "stop_name": "Exposition / University", "stop_desc": 0.0, "stop_lat": 34.018015, "stop_lon": -118.286718, "stop_url": 0.0, "location_type": 0.0, "parent_station": 0.0, "tpis_name": 0.0, "id": "1830"}, {"stop_id": "4980", "stop_code": 4980, "stop_name": "Figueroa / Exposition", "stop_desc": 0.0, "stop_lat": 34.01879, "stop_lon": -118.281793, "stop_url": 0.0, "location_type": 0.0, "parent_station": 0.0, "tpis_name": 0.0, "id": "4980"}, {"stop_id": "7756", "stop_code": 7756, "stop_name": "Jefferson / Figueroa", "stop_desc": 0.0, "stop_lat": 34.021689, "stop_lon": -118.279757, "stop_url": 0.0, "location_type": 0.0, "parent_station": 0.0, "tpis_name": 0.0, "id": "7756"}, {"stop_id": "7761", "stop_code": 7761, "stop_name": "Jefferson / Hope", "stop_desc": 0.0, "stop_lat": 34.020797, "stop_lon": -118.277731, "stop_url": 0.0, "location_type": 0.0, "parent_station": 0.0, "tpis_name": 0.0, "id": "7761"}, {"stop_id": "7757", "stop_code": 7757, "stop_name": "Jefferson / Grand", "stop_desc": 0.0, "stop_lat": 34.019975, "stop_lon": -118.27588, "stop_url": 0.0, "location_type": 0.0, "parent_station": 0.0, "tpis_name": 0.0, "id": "7757"}, {"stop_id": "8215", "stop_code": 8215, "stop_name": "Jefferson / Broadway", "stop_desc": 0.0, "stop_lat": 34.019143, "stop_lon": -118.274043, "stop_url": 0.0, "location_type": 0.0, "parent_station": 0.0, "tpis_name": 0.0, "id": "8215"}, {"stop_id": "1514", "stop_code": 1514, "stop_name": "Jefferson / Main", "stop_desc": 0.0, "stop_lat": 34.018632, "stop_lon": -118.272903, "stop_url": 0.0, "location_type": 0.0, "parent_station": 0.0, "tpis_name": 0.0, "id": "1514"}, {"stop_id": "2699", "stop_code": 2699, "stop_name": "Jefferson / Maple", "stop_desc": 0.0, "stop_lat": 34.017153, "stop_lon": -118.269624, "stop_url": 0.0, "location_type": 0.0, "parent_station": 0.0, "tpis_name": 0.0, "id": "2699"}, {"stop_id": "1516", "stop_code": 1516, "stop_name": "Jefferson / Trinity", "stop_desc": 0.0, "stop_lat": 34.016163, "stop_lon": -118.267456, "stop_url": 0.0, "location_type": 0.0, "parent_station": 0.0, "tpis_name": 0.0, "id": "1516"}, {"stop_id": "1515", "stop_code": 1515, "stop_name": "Jefferson / San Pedro", "stop_desc": 0.0, "stop_lat": 34.015299, "stop_lon": -118.265563, "stop_url": 0.0, "location_type": 0.0, "parent_station": 0.0, "tpis_name": 0.0, "id": "1515"}, {"stop_id": "1513", "stop_code": 1513, "stop_name": "Jefferson / Griffith", "stop_desc": 0.0, "stop_lat": 34.013877, "stop_lon": -118.262107, "stop_url": 0.0, "location_type": 0.0, "parent_station": 0.0, "tpis_name": 0.0, "id": "1513"}, {"stop_id": "2698", "stop_code": 2698, "stop_name": "Jefferson / Central", "stop_desc": 0.0, "stop_lat": 34.011578, "stop_lon": -118.256784, "stop_url": 0.0, "location_type": 0.0, "parent_station": 0.0, "tpis_name": 0.0, "id": "2698"}, {"stop_id": "1188", "stop_code": 1188, "stop_name": "41st / Central", "stop_desc": 0.0, "stop_lat": 34.009139, "stop_lon": -118.256163, "stop_url": 0.0, "location_type": 0.0, "parent_station": 0.0, "tpis_name": 0.0, "id": "1188"}, {"stop_id": "1185", "stop_code": 1185, "stop_name": "Hooper / 41st", "stop_desc": 0.0, "stop_lat": 34.008631, "stop_lon": -118.252231, "stop_url": 0.0, "location_type": 0.0, "parent_station": 0.0, "tpis_name": 0.0, "id": "1185"}, {"stop_id": "653", "stop_code": 653, "stop_name": "Hooper / 42nd", "stop_desc": 0.0, "stop_lat": 34.006787, "stop_lon": -118.252236, "stop_url": 0.0, "location_type": 0.0, "parent_station": 0.0, "tpis_name": 0.0, "id": "653"}, {"stop_id": "657", "stop_code": 657, "stop_name": "Hooper / Vernon", "stop_desc": 0.0, "stop_lat": 34.004039, "stop_lon": -118.252234, "stop_url": 0.0, "location_type": 0.0, "parent_station": 0.0, "tpis_name": 0.0, "id": "657"}, {"stop_id": "667", "stop_code": 667, "stop_name": "Hooper / 48th", "stop_desc": 0.0, "stop_lat": 33.99945, "stop_lon": -118.25223, "stop_url": 0.0, "location_type": 0.0, "parent_station": 0.0, "tpis_name": 0.0, "id": "667"}, {"stop_id": "759", "stop_code": 759, "stop_name": "Hooper / 51st", "stop_desc": 0.0, "stop_lat": 33.997241, "stop_lon": -118.25223, "stop_url": 0.0, "location_type": 0.0, "parent_station": 0.0, "tpis_name": 0.0, "id": "759"}, {"stop_id": "766", "stop_code": 766, "stop_name": "Hooper / 55th", "stop_desc": 0.0, "stop_lat": 33.99274, "stop_lon": -118.252213, "stop_url": 0.0, "location_type": 0.0, "parent_station": 0.0, "tpis_name": 0.0, "id": "766"}, {"stop_id": "767", "stop_code": 767, "stop_name": "Hooper / Slauson", "stop_desc": 0.0, "stop_lat": 33.989058, "stop_lon": -118.252218, "stop_url": 0.0, "location_type": 0.0, "parent_station": 0.0, "tpis_name": 0.0, "id": "767"}, {"stop_id": "769", "stop_code": 769, "stop_name": "Hooper / 60th", "stop_desc": 0.0, "stop_lat": 33.985368, "stop_lon": -118.252211, "stop_url": 0.0, "location_type": 0.0, "parent_station": 0.0, "tpis_name": 0.0, "id": "769"}, {"stop_id": "771", "stop_code": 771, "stop_name": "Hooper / Gage", "stop_desc": 0.0, "stop_lat": 33.982285, "stop_lon": -118.252168, "stop_url": 0.0, "location_type": 0.0, "parent_station": 0.0, "tpis_name": 0.0, "id": "771"}, {"stop_id": "13343", "stop_code": 13343, "stop_name": "Central / Gage", "stop_desc": 0.0, "stop_lat": 33.981723, "stop_lon": -118.256593, "stop_url": 0.0, "location_type": 0.0, "parent_station": 0.0, "tpis_name": 0.0, "id": "13343"}, {"stop_id": "13322", "stop_code": 13322, "stop_name": "Central / 68th", "stop_desc": 0.0, "stop_lat": 33.978546, "stop_lon": -118.256574, "stop_url": 0.0, "location_type": 0.0, "parent_station": 0.0, "tpis_name": 0.0, "id": "13322"}, {"stop_id": "3731", "stop_code": 3731, "stop_name": "Florence / Central", "stop_desc": 0.0, "stop_lat": 33.974646, "stop_lon": -118.255839, "stop_url": 0.0, "location_type": 0.0, "parent_station": 0.0, "tpis_name": 0.0, "id": "3731"}, {"stop_id": "1416", "stop_code": 1416, "stop_name": "Florence / Hooper", "stop_desc": 0.0, "stop_lat": 33.974636, "stop_lon": -118.251651, "stop_url": 0.0, "location_type": 0.0, "parent_station": 0.0, "tpis_name": 0.0, "id": "1416"}, {"stop_id": "1412", "stop_code": 1412, "stop_name": "Florence / Compton", "stop_desc": 0.0, "stop_lat": 33.974627, "stop_lon": -118.247924, "stop_url": 0.0, "location_type": 0.0, "parent_station": 0.0, "tpis_name": 0.0, "id": "1412"}, {"stop_id": "1420", "stop_code": 1420, "stop_name": "Florence / Miramonte", "stop_desc": 0.0, "stop_lat": 33.974623, "stop_lon": -118.245681, "stop_url": 0.0, "location_type": 0.0, "parent_station": 0.0, "tpis_name": 0.0, "id": "1420"}, {"stop_id": "1410", "stop_code": 1410, "stop_name": "Florence Station", "stop_desc": 0.0, "stop_lat": 33.974613, "stop_lon": -118.242485, "stop_url": 0.0, "location_type": 0.0, "parent_station": 0.0, "tpis_name": 0.0, "id": "1410"}, {"stop_id": "1955", "stop_code": 1955, "stop_name": "Florence / Bell", "stop_desc": 0.0, "stop_lat": 33.974605, "stop_lon": -118.238336, "stop_url": 0.0, "location_type": 0.0, "parent_station": 0.0, "tpis_name": 0.0, "id": "1955"}, {"stop_id": "1429", "stop_code": 1429, "stop_name": "Florence / Roseberry", "stop_desc": 0.0, "stop_lat": 33.974604, "stop_lon": -118.233161, "stop_url": 0.0, "location_type": 0.0, "parent_station": 0.0, "tpis_name": 0.0, "id": "1429"}, {"stop_id": "1433", "stop_code": 1433, "stop_name": "Florence / Santa Fe", "stop_desc": 0.0, "stop_lat": 33.974606, "stop_lon": -118.230608, "stop_url": 0.0, "location_type": 0.0, "parent_station": 0.0, "tpis_name": 0.0, "id": "1433"}, {"stop_id": "2395", "stop_code": 2395, "stop_name": "Florence / Rugby", "stop_desc": 0.0, "stop_lat": 33.974232, "stop_lon": -118.226679, "stop_url": 0.0, "location_type": 0.0, "parent_station": 0.0, "tpis_name": 0.0, "id": "2395"}, {"stop_id": "9957", "stop_code": 9957, "stop_name": "Florence / Pacific", "stop_desc": 0.0, "stop_lat": 33.973986, "stop_lon": -118.224485, "stop_url": 0.0, "location_type": 0.0, "parent_station": 0.0, "tpis_name": 0.0, "id": "9957"}, {"stop_id": "9965", "stop_code": 9965, "stop_name": "Florence / Seville", "stop_desc": 0.0, "stop_lat": 33.973821, "stop_lon": -118.222706, "stop_url": 0.0, "location_type": 0.0, "parent_station": 0.0, "tpis_name": 0.0, "id": "9965"}, {"stop_id": "142005", "stop_code": 142005, "stop_name": "Seville / Live Oak", "stop_desc": 0.0, "stop_lat": 33.971516, "stop_lon": -118.222496, "stop_url": 0.0, "location_type": 0.0, "parent_station": 0.0, "tpis_name": 0.0, "id": "142005"}, {"stop_id": "142006", "stop_code": 142006, "stop_name": "Seville / Grand", "stop_desc": 0.0, "stop_lat": 33.969024, "stop_lon": -118.222486, "stop_url": 0.0, "location_type": 0.0, "parent_station": 0.0, "tpis_name": 0.0, "id": "142006"}, {"stop_id": "14551", "stop_code": 14551, "stop_name": "Seville / Broadway", "stop_desc": 0.0, "stop_lat": 33.966529, "stop_lon": -118.222479, "stop_url": 0.0, "location_type": 0.0, "parent_station": 0.0, "tpis_name": 0.0, "id": "14551"}, {"stop_id": "14558", "stop_code": 14558, "stop_name": "Seville / Santa Ana", "stop_desc": 0.0, "stop_lat": 33.964883, "stop_lon": -118.222488, "stop_url": 0.0, "location_type": 0.0, "parent_station": 0.0, "tpis_name": 0.0, "id": "14558"}, {"stop_id": "2709", "stop_code": 2709, "stop_name": "Slauson / La Tijera", "stop_desc": 0.0, "stop_lat": 33.987725, "stop_lon": -118.365025, "stop_url": 0.0, "location_type": 0.0, "parent_station": 0.0, "tpis_name": 0.0, "id": "2709"}, {"stop_id": "16275", "stop_code": 16275, "stop_name": "Slauson / Goldleaf", "stop_desc": 0.0, "stop_lat": 33.987774, "stop_lon": -118.366982, "stop_url": 0.0, "location_type": 0.0, "parent_station": 0.0, "tpis_name": 0.0, "id": "16275"}, {"stop_id": "11262", "stop_code": 11262, "stop_name": "La Cienega SB On-Ramp / Slauson", "stop_desc": 0.0, "stop_lat": 33.987542, "stop_lon": -118.37088, "stop_url": 0.0, "location_type": 0.0, "parent_station": 0.0, "tpis_name": 0.0, "id": "11262"}, {"stop_id": "7099", "stop_code": 7099, "stop_name": "Vernon Yard", "stop_desc": 0.0, "stop_lat": 34.004619, "stop_lon": -118.227381, "stop_url": 0.0, "location_type": 0.0, "parent_station": 0.0, "tpis_name": 0.0, "id": "7099"}, {"stop_id": "4201", "stop_code": 4201, "stop_name": "Pacific / RR-- Xing", "stop_desc": 0.0, "stop_lat": 34.004063, "stop_lon": -118.227782, "stop_url": 0.0, "location_type": 0.0, "parent_station": 0.0, "tpis_name": 0.0, "id": "4201"}, {"stop_id": "4198", "stop_code": 4198, "stop_name": "Vernon / Santa Fe", "stop_desc": 0.0, "stop_lat": 34.004094, "stop_lon": -118.23056, "stop_url": 0.0, "location_type": 0.0, "parent_station": 0.0, "tpis_name": 0.0, "id": "4198"}, {"stop_id": "10256", "stop_code": 10256, "stop_name": "Vernon / Saint Charles", "stop_desc": 0.0, "stop_lat": 34.004077, "stop_lon": -118.234744, "stop_url": 0.0, "location_type": 0.0, "parent_station": 0.0, "tpis_name": 0.0, "id": "10256"}, {"stop_id": "10249", "stop_code": 10249, "stop_name": "Vernon / Alameda", "stop_desc": 0.0, "stop_lat": 34.004061, "stop_lon": -118.238713, "stop_url": 0.0, "location_type": 0.0, "parent_station": 0.0, "tpis_name": 0.0, "id": "10249"}, {"stop_id": "36572", "stop_code": 36572, "stop_name": "Vernon / Long Beach", "stop_desc": 0.0, "stop_lat": 34.00405, "stop_lon": -118.242705, "stop_url": 0.0, "location_type": 0.0, "parent_station": 0.0, "tpis_name": 0.0, "id": "36572"}, {"stop_id": "10243", "stop_code": 10243, "stop_name": "Vernon / Compton", "stop_desc": 0.0, "stop_lat": 34.004026, "stop_lon": -118.24807, "stop_url": 0.0, "location_type": 0.0, "parent_station": 0.0, "tpis_name": 0.0, "id": "10243"}, {"stop_id": "10244", "stop_code": 10244, "stop_name": "Vernon / Hooper", "stop_desc": 0.0, "stop_lat": 34.00403, "stop_lon": -118.252445, "stop_url": 0.0, "location_type": 0.0, "parent_station": 0.0, "tpis_name": 0.0, "id": "10244"}, {"stop_id": "10251", "stop_code": 10251, "stop_name": "Vernon / Central", "stop_desc": 0.0, "stop_lat": 34.004043, "stop_lon": -118.256813, "stop_url": 0.0, "location_type": 0.0, "parent_station": 0.0, "tpis_name": 0.0, "id": "10251"}, {"stop_id": "10247", "stop_code": 10247, "stop_name": "Vernon / McKinley", "stop_desc": 0.0, "stop_lat": 34.004035, "stop_lon": -118.26069, "stop_url": 0.0, "location_type": 0.0, "parent_station": 0.0, "tpis_name": 0.0, "id": "10247"}, {"stop_id": "10250", "stop_code": 10250, "stop_name": "Vernon / Avalon", "stop_desc": 0.0, "stop_lat": 34.004016, "stop_lon": -118.265718, "stop_url": 0.0, "location_type": 0.0, "parent_station": 0.0, "tpis_name": 0.0, "id": "10250"}, {"stop_id": "10253", "stop_code": 10253, "stop_name": "Vernon / San Pedro", "stop_desc": 0.0, "stop_lat": 34.004002, "stop_lon": -118.269447, "stop_url": 0.0, "location_type": 0.0, "parent_station": 0.0, "tpis_name": 0.0, "id": "10253"}, {"stop_id": "10252", "stop_code": 10252, "stop_name": "Vernon / Main", "stop_desc": 0.0, "stop_lat": 34.003964, "stop_lon": -118.274307, "stop_url": 0.0, "location_type": 0.0, "parent_station": 0.0, "tpis_name": 0.0, "id": "10252"}, {"stop_id": "36575", "stop_code": 36575, "stop_name": "Vernon / Broadway", "stop_desc": 0.0, "stop_lat": 34.003931, "stop_lon": -118.278837, "stop_url": 0.0, "location_type": 0.0, "parent_station": 0.0, "tpis_name": 0.0, "id": "36575"}, {"stop_id": "36576", "stop_code": 36576, "stop_name": "Vernon / Figueroa", "stop_desc": 0.0, "stop_lat": 34.003896, "stop_lon": -118.282304, "stop_url": 0.0, "location_type": 0.0, "parent_station": 0.0, "tpis_name": 0.0, "id": "36576"}, {"stop_id": "16421", "stop_code": 16421, "stop_name": "Vernon / Hoover", "stop_desc": 0.0, "stop_lat": 34.00385, "stop_lon": -118.287468, "stop_url": 0.0, "location_type": 0.0, "parent_station": 0.0, "tpis_name": 0.0, "id": "16421"}, {"stop_id": "16424", "stop_code": 16424, "stop_name": "Vernon / Vermont", "stop_desc": 0.0, "stop_lat": 34.003831, "stop_lon": -118.29204, "stop_url": 0.0, "location_type": 0.0, "parent_station": 0.0, "tpis_name": 0.0, "id": "16424"}, {"stop_id": "16416", "stop_code": 16416, "stop_name": "Vernon / Budlong", "stop_desc": 0.0, "stop_lat": 34.003825, "stop_lon": -118.295709, "stop_url": 0.0, "location_type": 0.0, "parent_station": 0.0, "tpis_name": 0.0, "id": "16416"}, {"stop_id": "16422", "stop_code": 16422, "stop_name": "Vernon / Normandie", "stop_desc": 0.0, "stop_lat": 34.003842, "stop_lon": -118.299939, "stop_url": 0.0, "location_type": 0.0, "parent_station": 0.0, "tpis_name": 0.0, "id": "16422"}, {"stop_id": "16410", "stop_code": 16410, "stop_name": "Vernon / Denker", "stop_desc": 0.0, "stop_lat": 34.00385, "stop_lon": -118.30437, "stop_url": 0.0, "location_type": 0.0, "parent_station": 0.0, "tpis_name": 0.0, "id": "16410"}, {"stop_id": "16420", "stop_code": 16420, "stop_name": "Vernon / Harvard", "stop_desc": 0.0, "stop_lat": 34.00385, "stop_lon": -118.306568, "stop_url": 0.0, "location_type": 0.0, "parent_station": 0.0, "tpis_name": 0.0, "id": "16420"}, {"stop_id": "16426", "stop_code": 16426, "stop_name": "Vernon / Western", "stop_desc": 0.0, "stop_lat": 34.003848, "stop_lon": -118.308679, "stop_url": 0.0, "location_type": 0.0, "parent_station": 0.0, "tpis_name": 0.0, "id": "16426"}, {"stop_id": "8138", "stop_code": 8138, "stop_name": "Vernon / Gramercy", "stop_desc": 0.0, "stop_lat": 34.003843, "stop_lon": -118.313651, "stop_url": 0.0, "location_type": 0.0, "parent_station": 0.0, "tpis_name": 0.0, "id": "8138"}, {"stop_id": "2475", "stop_code": 2475, "stop_name": "Vernon / Arlington", "stop_desc": 0.0, "stop_lat": 34.003836, "stop_lon": -118.318376, "stop_url": 0.0, "location_type": 0.0, "parent_station": 0.0, "tpis_name": 0.0, "id": "2475"}, {"stop_id": "8126", "stop_code": 8126, "stop_name": "Vernon / 4th", "stop_desc": 0.0, "stop_lat": 34.003818, "stop_lon": -118.321207, "stop_url": 0.0, "location_type": 0.0, "parent_station": 0.0, "tpis_name": 0.0, "id": "8126"}, {"stop_id": "8127", "stop_code": 8127, "stop_name": "Vernon / 6th", "stop_desc": 0.0, "stop_lat": 34.003812, "stop_lon": -118.323394, "stop_url": 0.0, "location_type": 0.0, "parent_station": 0.0, "tpis_name": 0.0, "id": "8127"}, {"stop_id": "8128", "stop_code": 8128, "stop_name": "Vernon / 8th", "stop_desc": 0.0, "stop_lat": 34.003803, "stop_lon": -118.325575, "stop_url": 0.0, "location_type": 0.0, "parent_station": 0.0, "tpis_name": 0.0, "id": "8128"}, {"stop_id": "8125", "stop_code": 8125, "stop_name": "Vernon / 11th", "stop_desc": 0.0, "stop_lat": 34.003796, "stop_lon": -118.329195, "stop_url": 0.0, "location_type": 0.0, "parent_station": 0.0, "tpis_name": 0.0, "id": "8125"}, {"stop_id": "2505", "stop_code": 2505, "stop_name": "Vernon / Crenshaw", "stop_desc": 0.0, "stop_lat": 34.003796, "stop_lon": -118.331376, "stop_url": 0.0, "location_type": 0.0, "parent_station": 0.0, "tpis_name": 0.0, "id": "2505"}, {"stop_id": "926", "stop_code": 926, "stop_name": "Crenshaw / 43rd", "stop_desc": 0.0, "stop_lat": 34.004774, "stop_lon": -118.333091, "stop_url": 0.0, "location_type": 0.0, "parent_station": 0.0, "tpis_name": 0.0, "id": "926"}, {"stop_id": "892", "stop_code": 892, "stop_name": "Crenshaw / 43rd", "stop_desc": 0.0, "stop_lat": 34.005688, "stop_lon": -118.333805, "stop_url": 0.0, "location_type": 0.0, "parent_station": 0.0, "tpis_name": 0.0, "id": "892"}, {"stop_id": "876", "stop_code": 876, "stop_name": "Crenshaw / Stocker", "stop_desc": 0.0, "stop_lat": 34.008237, "stop_lon": -118.33494, "stop_url": 0.0, "location_type": 0.0, "parent_station": 0.0, "tpis_name": 0.0, "id": "876"},